stop_id,stop_code,stop_name,stop_desc,stop_lat,stop_lon,zone_id,stop_url,location_type,parent_station,stop_timezone,wheelchair_boarding,platform_code
10000802,,"Hamraborg",,64.111089,-21.908351,,,1,,,,
10000804,,"Sunnuhlíð",,64.109082,-21.909596,,,0,,,,
10000805,,"Kópavogslaug",,64.109198,-21.917279,,,0,,,,
10000806,,"Kársnesskóli",,64.109192,-21.924001,,,0,,,,
10000807,,"Kópavör",,64.109299,-21.930667,,,0,,,,
10000808,,"Hafnarbraut",,64.111244,-21.935374,,,0,,,,
10000809,,"Vesturvör",,64.113604,-21.929884,,,0,,,,
10000810,,"Holtagerði",,64.113682,-21.923298,,,0,,,,
10000811,,"Bakkahjalli",,64.107374,-21.87409,,,0,,,,
10000812,,"Sæból",,64.114526,-21.903531,,,0,,,,
10000814,,"Skeljabrekka",,64.114422,-21.899866,,,0,,,,
10000815,,"Gul gata",,64.113328,-21.84835,,,0,,,,
10000817,,"Kóravegur",,64.085384,-21.819622,,,0,,,,
10000818,,"Gul gata",,64.113249,-21.848192,,,0,,,,
10000819,,"Víghóll",,64.111758,-21.884427,,,0,,,,
10000820,,"MK",,64.110166,-21.89586,,,0,,,,
10000821,,"MK",,64.110274,-21.895669,,,0,,,,
10000822,,"Kópavogsskóli",,64.110379,-21.900322,,,0,,,,
10000823,,"Kóravegur",,64.08531,-21.818631,,,0,,,,
10000824,,"Elliðahvammur",,64.087018,-21.812824,,,0,,,,
10000825,,"Arnarsmári",,64.099645,-21.904513,,,0,,,,
10000826,,"Arnarsmári",,64.099711,-21.903924,,,0,,,,
10000827,,"Arnarnesvegur",,64.09869,-21.905116,,,0,,,,
10000828,,"Víghóll",,64.11183,-21.884425,,,0,,,,
10000830,,"Elliðahvammur",,64.087173,-21.812628,,,0,,,,
10000831,,"Lindir",,64.09858,-21.870174,,,0,,,,
10000832,,"Grá gata",,64.110889,-21.85211,,,0,,,,
10000834,,"Salavegur",,64.0893318657809,-21.8426006419659,,,0,,,,
10000835,,"Skógarhjalli",,64.106455,-21.855698,,,0,,,,
10000836,,"Skógarhjalli",,64.106595,-21.855849,,,0,,,,
10000837,,"Fífuhjalli",,64.107757,-21.860165,,,0,,,,
10000838,,"Hjallakirkja",,64.109553,-21.866266,,,0,,,,
10000839,,"Grá gata",,64.110901,-21.852318,,,0,,,,
10000842,,"Birkigrund",,64.114069,-21.887445,,,0,,,,
10000843,,"Birkigrund",,64.1143221890465,-21.8876962017482,,,0,,,,
10000844,,"Furugrund",,64.11393,-21.87987,,,0,,,,
10000845,,"Furugrund",,64.1141001281269,-21.8799443092546,,,0,,,,
10000846,,"Lundarbrekka",,64.113678,-21.872197,,,0,,,,
10000847,,"Lundarbrekka",,64.113842,-21.872486,,,0,,,,
10000848,,"Þverbrekka",,64.113735,-21.868226,,,0,,,,
10000849,,"Þverbrekka",,64.113461,-21.866342,,,0,,,,
10000850,,"Álfabrekka",,64.112944,-21.861297,,,0,,,,
10000851,,"Álfabrekka",,64.113209,-21.86117,,,0,,,,
10000852,,"Efstihjalli",,64.110757,-21.856081,,,0,,,,
10000853,,"Efstihjalli",,64.110813,-21.855532,,,0,,,,
10000854,,"Kópavogsdalur",,64.10711850920445,-21.905592201223378,,,0,,,,
10000856,,"Kópavogsdalur",,64.106197,-21.903764,,,0,,,,
10000857,,"Brattabrekka",,64.11,-21.888501,,,0,,,,
10000858,,"Brattabrekka",,64.110158,-21.888489,,,0,,,,
10000859,,"Kópavogsskóli",,64.110292,-21.899697,,,0,,,,
10000860,,"Álfkonuhvarf",,64.090786,-21.808158,,,0,,,,
10000862,,"Dalvegur",,64.105858,-21.872156,,,0,,,,
10000863,,"Dalvegur",,64.105812,-21.871792,,,0,,,,
10000864,,"Smáratorg",,64.10427,-21.879689,,,0,,,,
10000865,,"Smáratorg",,64.104185,-21.879448,,,0,,,,
10000872,,"Smárar",,64.102285,-21.892145,,,0,,,,
10000873,,"Smárar",,64.10207,-21.892387,,,0,,,,
10000874,,"Smáralind",,64.102703,-21.886314,,,0,,,,
10000875,,"Smáralind",,64.102525,-21.885823,,,0,,,,
10000876,,"Lindir",,64.098921,-21.871548,,,0,,,,
10000880,,"Salavegur",,64.089366,-21.845248,,,0,,,,
10000882,,"Lindarvegur",,64.100825,-21.871459,,,0,,,,
10000883,,"Kaldalind",,64.102109,-21.864024,,,0,,,,
10000884,,"Iðalind",,64.099474,-21.862353,,,0,,,,
10000885,,"Hvammsvegur",,64.096328,-21.858788,,,0,,,,
10000887,,"Fensalir",,64.093776,-21.853171,,,0,,,,
10000889,,"Kórsalir",,64.09212,-21.846356,,,0,,,,
10000892,,"Grænatunga",,64.108302,-21.895524,,,0,,,,
10000893,,"Hlíðargarður",,64.107808,-21.901346,,,0,,,,
10000894,,"Hrauntunga",,64.108752,-21.890088,,,0,,,,
10000895,,"Brekkuhjalli",,64.107587,-21.879616,,,0,,,,
10000900,,"Hlíðasmári",,64.097631,-21.891484,,,0,,,,
10000901,,"Dalsmári",,64.100015,-21.889215,,,0,,,,
10000903,,"Dalsmári",,64.099989,-21.889837,,,0,,,,
10000904,,"Hlíðasmári",,64.097616,-21.891752,,,0,,,,
10000906,,"Huldubraut",,64.114277,-21.914967,,,0,,,,
10000907,,"Hvammsvegur",,64.096463,-21.858742,,,0,,,,
10000908,,"Iðalind",,64.098855,-21.86228,,,0,,,,
10000909,,"Kaldalind",,64.102217,-21.863889,,,0,,,,
10000910,,"Lindarvegur",,64.100794,-21.871763,,,0,,,,
10000911,,"Rjúpnasalir",,64.090012,-21.843933,,,0,,,,
10000917,,"Digranes",,64.110944,-21.873839,,,0,,,,
10000918,,"Hjallakirkja",,64.109514,-21.866139,,,0,,,,
10000919,,"Fífuhjalli",,64.107695,-21.860097,,,0,,,,
10000920,,"Rjúpnavegur",,64.086819,-21.83374,,,0,,,,
10000922,,"Hörðuvallaskóli",,64.084613,-21.825444,,,0,,,,
10000923,,"Hörðuvallaskóli",,64.084678,-21.826078,,,0,,,,
10000925,,"Rjúpnavegur",,64.086905,-21.833585,,,0,,,,
10000926,,"Digranes",,64.110981,-21.873669,,,0,,,,
10000927,,"Engihjalli",,64.109807,-21.860418,,,0,,,,
10000928,,"Hjalli",,64.110826,-21.862431,,,0,,,,
10000929,,"Hlíðargarður",,64.1077307521777,-21.9012575604432,,,0,,,,
10000930,,"Grænatunga",,64.1082428971891,-21.8949856142625,,,0,,,,
10000931,,"Hrauntunga",,64.1086400526015,-21.8904403899256,,,0,,,,
10000932,,"Brekkuhjalli",,64.1075388010915,-21.8795335956611,,,0,,,,
10000933,,"Bakkahjalli",,64.1073332858159,-21.8740787033099,,,0,,,,
10000936,,"Engihjalli",,64.1097074496591,-21.860406318069,,,0,,,,
10000937,,"Sæból",,64.1147151489743,-21.9035922496775,,,0,,,,
10000938,,"Huldubraut",,64.114436747609,-21.915096355604,,,0,,,,
10000939,,"Holtagerði",,64.1138108977218,-21.9233745698796,,,0,,,,
10000940,,"Vesturvör",,64.1137321861171,-21.9293682771579,,,0,,,,
10000941,,"Hafnarbraut",,64.1110764334112,-21.9356735893651,,,0,,,,
10000942,,"Kópavör",,64.1092386222099,-21.931263789341,,,0,,,,
10000943,,"Kársnesskóli",,64.1091270432019,-21.9242167724833,,,0,,,,
10000944,,"Kópavogslaug",,64.1090471314352,-21.9172420900144,,,0,,,,
10000945,,"Álfkonuhvarf",,64.090774,-21.807935,,,0,,,,
10000946,,"Álfhóll",,64.111428,-21.872992,,,0,,,,
10000948,,"Lundur",,64.114587,-21.89492,,,0,,,,
10000949,,"Lundur",,64.1148053730673,-21.8950634999233,,,0,,,,
10000950,,"Vallakór",,64.0847611525669,-21.8202757765777,,,0,,,,
10000951,,"Boðaþing",,64.082119,-21.817871,,,0,,,,
10000953,,"Víkurhvarf",,64.0927826838478,-21.8094080550478,,,0,,,,
10000954,,"Ögurhvarf",,64.096425,-21.805488,,,0,,,,
10000955,,"Ögurhvarf",,64.09653,-21.80577,,,0,,,,
10000956,,"Víkurhvarf",,64.093697,-21.808651,,,0,,,,
10000957,,"Dalaþing",,64.08076,-21.813769,,,0,,,,
10000961,,"Álfhóll",,64.1113109279616,-21.8712193283921,,,0,,,,
10000962,,"Hjalli",,64.1111001509471,-21.865524664794,,,0,,,,
10000963,,"Sunnuhlíð",,64.1089980214091,-21.9095188983322,,,0,,,,
10000964,,"Lindakirkja",,64.0943230244082,-21.8617431163278,,,0,,,,
10000965,,"Lindakirkja",,64.0944757904809,-21.8616214526045,,,0,,,,
10000966,,"Salaskóli",,64.0896855104562,-21.8549341473963,,,0,,,,
10000967,,"Salaskóli",,64.0898393254196,-21.8547591189958,,,0,,,,
10000968,,"Rjúpnasalir",,64.0901261552729,-21.8436348169245,,,0,,,,
10000969,,"Kórsalir",,64.0922066046754,-21.8463327277251,,,0,,,,
10000970,,"Fensalir",,64.0939306587926,-21.8531851724621,,,0,,,,
10000972,,"Hamraborg A",,64.11163551673948,-21.90853313721961,,,0,10000802,,,
10000973,,"Hamraborg B",,64.1116582999983,-21.9083168609403,,,0,10000802,,,
10000974,,"Hamraborg C",,64.1109216936285,-21.9079469775923,,,0,10000802,,,
10000975,,"Hamraborg D",,64.11116069953647,-21.907223181794038,,,0,10000802,,,
11000100,,"Grænamýri",,64.146191,-21.977659,,,0,,,,
11000101,,"Skerjabraut",,64.148336,-21.98321,,,0,,,,
11000102,,"Eiðistorg",,64.150701,-21.987077,,,0,,,,
11000103,,"Gróttuvöllur",,64.149749,-21.994053,,,0,,,,
11000104,,"Bakkavör",,64.151323,-22.002626,,,0,,,,
11000105,,"Miðbraut",,64.153259,-22.004812,,,0,,,,
11000106,,"Hæðarbraut",,64.155473,-22.003511,,,0,,,,
11000107,,"Hofgarðar",,64.15764,-22.001297,,,0,,,,
11000108,,"Vesturströnd",,64.157636,-21.99257,,,0,,,,
11000109,,"Fornaströnd",,64.154798,-21.986627,,,0,,,,
11000110,,"Austurströnd",,64.152592,-21.985947,,,0,,,,
11000111,,"Eiðistorg",,64.150387,-21.9861,,,0,,,,
11000112,,"Skerjabraut",,64.148036,-21.982981,,,0,,,,
11000113,,"Grænamýri",,64.146087,-21.977692,,,0,,,,
11000147,,"Barðaströnd",,64.156782,-21.988204,,,0,,,,
13001201,,"Arnarneshæð",,64.099867,-21.916849,,,0,,,,
13001202,,"Akrar",,64.099335,-21.913226,,,0,,,,
13001204,,"Akrar",,64.099529,-21.912902,,,0,,,,
13001206,,"Sjávargrund",,64.091965,-21.929768,,,0,,,,
13001207,,"Arnarnesvegur",,64.098383,-21.903811,,,0,,,,
13001208,,"Reynilundur",,64.085651,-21.909578,,,0,,,,
13001209,,"Reynilundur",,64.0858,-21.909279,,,0,,,,
13001210,,"Hæðarbyggð",,64.088235,-21.907285,,,0,,,,
13001211,,"Búðir",,64.089627,-21.904301,,,0,,,,
13001212,,"Hæðarbyggð",,64.088219,-21.907533,,,0,,,,
13001218,,"Vídalínskirkja",,64.086775,-21.916422,,,0,,,,
13001219,,"Garðatorg",,64.087861209459,-21.92007600127,,,0,,,,
13001222,,"FG",,64.092528,-21.902847,,,0,,,,
13001223,,"Blómahæð",,64.096422,-21.902784,,,0,,,,
13001224,,"Búðir",,64.08958,-21.904583,,,0,,,,
13001225,,"Blómahæð",,64.09602,-21.90212,,,0,,,,
13001226,,"FG",,64.092585,-21.903221,,,0,,,,
13001233,,"Garðahraun",,64.077515,-21.929596,,,0,,,,
13001234,,"Línakur",,64.0979809046859,-21.9071613098249,,,0,,,,
13001300,,"Ásgarður A",,64.089679,-21.929797,,,0,,,,
13001301,,"Arnarás",,64.09075,-21.942956,,,0,,,,
13001302,,"Birkiás",,64.088076,-21.940529,,,0,,,,
13001303,,"Brekkuás",,64.086973,-21.942166,,,0,,,,
13001304,,"Hraunsholtsbraut",,64.085691,-21.950248,,,0,,,,
13001305,,"Herjólfsbraut",,64.084713,-21.966145,,,0,,,,
13001306,,"Garðaholtsvegur",,64.089246,-21.982334,,,0,,,,
13001322,,"Gálgahraun",,64.084827,-21.958036,,,0,,,,
13001323,,"Gálgahraun",,64.084719,-21.957896,,,0,,,,
13001328,,"Garðaholtsvegur",,64.088769,-21.981235,,,0,,,,
13001329,,"Herjólfsbraut",,64.08481,-21.967695,,,0,,,,
13001330,,"Sjáland",,64.091666,-21.942918,,,0,,,,
13001333,,"Sjáland",,64.09182,-21.942956,,,0,,,,
13001334,,"Garðatorg",,64.08765,-21.91995,,,0,,,,
13001335,,"Vídalínskirkja",,64.086336,-21.915694,,,0,,,,
13001336,,"Sjávargrund",,64.092021,-21.929626,,,0,,,,
13001337,,"Asparlundur",,64.084208,-21.904143,,,0,,,,
13001339,,"Asparlundur",,64.084172,-21.902866,,,0,,,,
13001343,,"Suðurhraun",,64.077767,-21.926526,,,0,,,,
13001344,,"Austurhraun",,64.076161,-21.922743,,,0,,,,
13001345,,"Miðhraun",,64.076783,-21.918972,,,0,,,,
13001346,,"Hraun",,64.078026,-21.914426,,,0,,,,
13001347,,"Hraun",,64.078047,-21.914549,,,0,,,,
13001348,,"Miðhraun",,64.076844,-21.919126,,,0,,,,
13001349,,"Austurhraun",,64.076222,-21.922933,,,0,,,,
13001350,,"Suðurhraun",,64.077831,-21.926387,,,0,,,,
13001351,,"Hraunsholtsbraut",,64.085576,-21.950153,,,0,,,,
13001352,,"Brekkuás",,64.086953,-21.941986,,,0,,,,
13001353,,"Birkiás",,64.088124,-21.940319,,,0,,,,
13001354,,"Arnarás",,64.090879,-21.942775,,,0,,,,
13001355,,"Sjálandsskóli",,64.092082,-21.936259,,,0,,,,
13001356,,"Sjálandsskóli",,64.092176,-21.93456,,,0,,,,
13001361,,"Kauptún",,64.074007,-21.914028,,,0,,,,
13001362,,"Nónhæð",,64.096512,-21.894143,,,0,,,,
13001504,,"Ásar",,64.086284,-21.937748,,,0,,,,
13001506,,"Hegranes",,64.095163,-21.922373,,,0,,,,
13001507,,"Arnarneshæð",,64.099366,-21.914992,,,0,,,,
13001523,,"Hegranes",,64.096185,-21.921988,,,0,,,,
13001525,,"Ásar",,64.086355,-21.938269,,,0,,,,
13001584,,"Garðahraun",,64.077452,-21.92963,,,0,,,,
13001586,,"Vífilsstaðir",,64.082286,-21.890105,,,0,,,,
13001587,,"Vífilsstaðir",,64.083042,-21.896583,,,0,,,,
13001588,,"Ásgarður B",,64.0902770354474,-21.9294653094709,,,0,,,,
13001589,,"Ásgarður C",,64.0901120054328,-21.9308091387264,,,0,,,,
13001590,,"Urriðaholtsstræti",,64.0735401248068,-21.9028267489091,,,0,,,,
13001591,,"Urriðaholtsskóli",,64.0684342822155,-21.8987324297482,,,0,,,,
13001592,,"Holtsvegur",,64.0689895586691,-21.9042058920442,,,0,,,,
13001593,,"Náttúrufræðistofnun Íslands",,64.073927608902,-21.907433737127,,,0,,,,
13001594,,"Íþróttahúsið Miðgarður",,64.0862407280822,-21.8880968642223,,,0,,,,
14001500,,"Fjörður",,64.06776220175486,-21.95752942212486,,,0,,,,
14001501,,"Hellisgerði",,64.072042,-21.95451,,,0,,,,
14001502,,"Hraunbrún",,64.075941,-21.951317,,,0,,,,
14001503,,"Norðurbær",,64.079737,-21.948809,,,0,,,,
14001504,,"Sundhöll Hafnarfjarðar",,64.072402,-21.966206,,,0,,,,
14001506,,"Skjólvangur",,64.077295,-21.965835,,,0,,,,
14001512,,"Hjallabraut",,64.078802,-21.954223,,,0,,,,
14001514,,"Iðnskólinn",,64.075418,-21.94595,,,0,,,,
14001515,,"Kaplakriki",,64.0766171163806,-21.9376036338494,,,0,,,,
14001520,,"Lækjarskóli",,64.0670160143399,-21.93988787921,,,0,,,,
14001523,,"Kaldárselsvegur",,64.0587240755895,-21.9360584149224,,,0,,,,
14001525,,"Goðatorg",,64.057963,-21.949083,,,0,,,,
14001526,,"Norðurbær",,64.079085,-21.94997,,,0,,,,
14001527,,"Hraunbrún",,64.074785,-21.952547,,,0,,,,
14001528,,"Hellisgerði",,64.071812,-21.955183,,,0,,,,
14001535,,"Víðivangur",,64.078842,-21.963587,,,0,,,,
14001536,,"Miðvangur",,64.07927,-21.958053,,,0,,,,
14001538,,"Mávahraun",,64.074665,-21.942402,,,0,,,,
14001539,,"Álfaskeið",,64.071306,-21.941305,,,0,,,,
14001540,,"Sólvangur",,64.068839,-21.939605,,,0,,,,
14001541,,"Flensborg",,64.064381,-21.947992,,,0,,,,
14001542,,"Flensborg",,64.064357,-21.948489,,,0,,,,
14001543,,"St. Jósefsspítali",,64.062707,-21.953896,,,0,,,,
14001544,,"Suðurbæjarlaug",,64.060473,-21.962542,,,0,,,,
14001545,,"Íshús Hafnarfjarðar",,64.062054,-21.961625,,,0,,,,
14001546,,"Víkingaþorpið",,64.065841,-21.956042,,,0,,,,
14001547,,"Ásvallalaug C",,64.052061,-21.974783,,,0,14001698,,,
14001551,,"Miðvangur",,64.079562,-21.958359,,,0,,,,
14001552,,"Víðivangur",,64.079396,-21.962947,,,0,,,,
14001561,,"Lækjargata",,64.067288,-21.947194,,,0,,,,
14001567,,"Akurholt",,64.055659,-21.979984,,,0,,,,
14001568,,"Bæjarholt",,64.05701,-21.982707,,,0,,,,
14001580,,"St. Jósefsspítali",,64.062611,-21.953708,,,0,,,,
14001583,,"Sólvangur",,64.0689,-21.939511,,,0,,,,
14001587,,"Suðurbæjarlaug",,64.060403,-21.962432,,,0,,,,
14001588,,"Hlíðarberg",,64.066405,-21.935842,,,0,,,,
14001589,,"Birkihlíð",,64.062642,-21.93457,,,0,,,,
14001596,,"Hlíðarberg",,64.067181,-21.936016,,,0,,,,
14001597,,"Lækjargata",,64.067353,-21.948527,,,0,,,,
14001600,,"Víkingaþorpið",,64.065194,-21.956773,,,0,,,,
14001601,,"Íshús Hafnarfjarðar",,64.062178,-21.96172,,,0,,,,
14001602,,"Kirkjuvellir",,64.050653,-21.982217,,,0,,,,
14001603,,"Daggarvellir",,64.048205,-21.980835,,,0,,,,
14001604,,"Hraunvallaskóli",,64.045543255643,-21.979178128346,,,0,,,,
14001605,,"Haukahús",,64.053245,-21.971125,,,0,,,,
14001607,,"Ásland I",,64.056631,-21.957028,,,0,,,,
14001608,,"Ásland II",,64.055725,-21.945865,,,0,,,,
14001609,,"Ásland I",,64.056765,-21.956984,,,0,,,,
14001610,,"Ástjörn",,64.054939,-21.965701,,,0,,,,
14001611,,"Óla Run tún",,64.057241,-21.965128,,,0,,,,
14001612,,"Haukahús",,64.053334,-21.971691,,,0,,,,
14001613,,"Hraunvallaskóli",,64.045546,-21.979055,,,0,,,,
14001614,,"Daggarvellir",,64.048361,-21.980808,,,0,,,,
14001615,,"Kirkjuvellir",,64.050623,-21.981941,,,0,,,,
14001616,,"Ásvallalaug B",,64.052789,-21.975244,,,0,14001698,,,
14001617,,"Kirkjutorg",,64.051702,-21.980002,,,0,,,,
14001618,,"Kirkjutorg",,64.051711,-21.979893,,,0,,,,
14001619,,"Ásvallalaug A",,64.05275,-21.974952,,,0,14001698,,,
14001620,,"Óla Run tún",,64.057287,-21.965357,,,0,,,,
14001626,,"Grænakinn",,64.066051,-21.944889,,,0,,,,
14001627,,"Álfaskeið",,64.071382,-21.941172,,,0,,,,
14001634,,"Grænakinn",,64.066075,-21.944603999999998,,,0,,,,
14001638,,"Hnoðravellir",,64.043228,-21.96752,,,0,,,,
14001639,,"Glitvellir",,64.042419,-21.975853999999998,,,0,,,,
14001640,,"Hvannavellir",,64.043017,-21.97781,,,0,,,,
14001641,,"Flatahraun",,64.075742,-21.941716,,,0,,,,
14001646,,"Flatahraun",,64.075714,-21.943929,,,0,,,,
14001647,,"Hvannavellir",,64.043003,-21.977966,,,0,,,,
14001648,,"Glitvellir",,64.04234,-21.97579,,,0,,,,
14001649,,"Hnoðravellir",,64.043163,-21.967206,,,0,,,,
14001650,,"Brekkutröð",,64.060387,-21.978211,,,0,,,,
14001653,,"Brekkutröð",,64.060473,-21.978384,,,0,,,,
14001660,,"Akurvellir",,64.049266,-21.983866,,,0,,,,
14001661,,"Akurvellir",,64.049251,-21.983721,,,0,,,,
14001663,,"Kaplakriki",,64.0769446527884,-21.9374269861653,,,0,,,,
14001665,,"Skjólvangur",,64.077027,-21.966447,,,0,,,,
14001666,,"Sundhöll Hafnarfjarðar",,64.072377,-21.966695,,,0,,,,
14001667,,"Norðurbakki",,64.069827,-21.962006,,,0,,,,
14001668,,"Norðurbakki",,64.069956,-21.96178,,,0,,,,
14001669,,"Lækjargata",,64.067258,-21.948475,,,0,,,,
14001672,,"Fagrahlíð",,64.059575,-21.929398,,,0,,,,
14001673,,"Lækjarskóli",,64.066839,-21.9418,,,0,,,,
14001674,,"Ásland III",,64.05701,-21.932122,,,0,,,,
14001675,,"Ásland III",,64.056949,-21.932365,,,0,,,,
14001676,,"Kaldárselsvegur",,64.05917,-21.937516,,,0,,,,
14001677,,"Goðatorg",,64.057846,-21.948962,,,0,,,,
14001678,,"Skipalón",,64.062015,-21.972,,,0,,,,
14001679,,"Skipalón",,64.062195,-21.972034,,,0,,,,
14001680,,"Álfholt",,64.05656,-21.978164,,,0,,,,
14001681,,"Miklaholt",,64.058947,-21.988155,,,0,,,,
14001682,,"Fagrahlíð",,64.059652,-21.929459,,,0,,,,
14001684,,"Birkihlíð",,64.062704,-21.934502,,,0,,,,
14001685,,"Setbergsskóli",,64.065152,-21.93409,,,0,,,,
14001686,,"Bátaskýlin við Lónsbraut",,64.059424,-21.983909,,,0,,,,
14001687,,"Ásvallalaug D",,64.052513,-21.973977,,,0,14001698,,,
14001688,,"Berghella",,64.045553,-21.991903,,,0,,,,
14001689,,"Steinhella",,64.047713,-21.994591,,,0,,,,
14001690,,"Rauðhella",,64.047181,-22.000596,,,0,,,,
14001691,,"Breiðhella",,64.041552,-22.002734,,,0,,,,
14001692,,"Álfhella",,64.037009,-22.006027,,,0,,,,
14001693,,"Dranghella",,64.037932,-21.99454,,,0,,,,
14001694,,"Einhella",,64.04044,-21.992239,,,0,,,,
14001695,,"Gjáhella",,64.045661,-22.000308,,,0,,,,
14001696,,"Hamranes",,64.04328543517,-21.957624142137,,,0,,,,
14001697,,"Skarðshlíð",,64.0436622356166,-21.9567354837356,,,0,,,,
14001698,,"Ásvallalaug",,64.05250971877328,-21.97445066322145,,,1,,,,
16031307,,"Eyvindarstaðavegur",,64.1061277550452,-22.009885198667,,,0,,,,
16031308,,"Túngata",,64.109385,-22.012975,,,0,,,,
16031309,,"Jörfavegur",,64.114948,-22.005857,,,0,,,,
16031310,,"Túngata",,64.109253,-22.012978,,,0,,,,
16031311,,"Sjávargata",,64.109517,-22.018227,,,0,,,,
16031312,,"Hólmatún",,64.108251,-22.021435,,,0,,,,
16031313,,"Mýrarkot",,64.104417,-22.027198,,,0,,,,
16031314,,"Klukkuholt",,64.10216,-22.026917,,,0,,,,
16031315,,"Höfðabraut",,64.100105,-22.025576,,,0,,,,
16031317,,"Brekkuland",,64.100621,-22.019045,,,0,,,,
16031318,,"Höfðabraut",,64.100226,-22.025543,,,0,,,,
16031319,,"Brekkuland",,64.100562,-22.018891,,,0,,,,
16031320,,"Álftanesskóli",,64.102341,-22.017874,,,0,,,,
16031321,,"Bessastaðir",,64.102592,-22.009632,,,0,,,,
16031322,,"Bessastaðir",,64.1025974321652,-22.0098531589104,,,0,,,,
16031323,,"Klukkuholt",,64.102224,-22.02678,,,0,,,,
16031324,,"Mýrarkot",,64.104473,-22.027019,,,0,,,,
16031325,,"Hólmatún",,64.108264,-22.021144,,,0,,,,
16031326,,"Sjávargata",,64.109501,-22.017855,,,0,,,,
16031327,,"Eyvindarstaðavegur",,64.106082,-22.009842,,,0,,,,
16040604,,"Skálatún",,64.15955,-21.725659,,,0,,,,
16040606,,"Klapparhlíð",,64.163149,-21.727952,,,0,,,,
16040607,,"Bollatangi",,64.168511,-21.717552,,,0,,,,
16040608,,"Brekkutangi",,64.169358,-21.714603,,,0,,,,
16040609,,"Álfatangi",,64.1700323065465,-21.7081721206792,,,0,,,,
16040610,,"Skeiðholt",,64.1696206480061,-21.6996765174318,,,0,,,,
16040611,,"Varmárskóli",,64.169867,-21.692703,,,0,,,,
16040612,,"Háholt",,64.167206,-21.694366,,,0,,,,
16040613,,"Krikaskóli",,64.163313,-21.687658,,,0,,,,
16040614,,"Dælustöðvarvegur",,64.158347,-21.670779,,,0,,,,
16040615,,"Reykjabyggð",,64.155738,-21.663995,,,0,,,,
16040616,,"Lágafellsskóli",,64.165884,-21.725818,,,0,,,,
16040617,,"Reykjavegur",,64.153855,-21.65753,,,0,,,,
16040618,,"Dælustöðvarvegur",,64.158349,-21.670577,,,0,,,,
16040619,,"Háholt",,64.167237,-21.693797,,,0,,,,
16040620,,"FMOS",,64.16593,-21.702089,,,0,,,,
16040621,,"Reykjabyggð",,64.1557821174627,-21.6639075700859,,,0,,,,
16040622,,"Krikaskóli",,64.164059,-21.689208,,,0,,,,
16040624,,"Bæjarás",,64.171424,-21.677768,,,0,,,,
16040625,,"Lágafell",,64.1607780403207,-21.7195195069781,,,0,,,,
16040626,,"Lágafell",,64.1610835548314,-21.7197697163752,,,0,,,,
16040634,,"Varmárskóli",,64.169968,-21.692647,,,0,,,,
16040635,,"Skeiðholt",,64.1696530641305,-21.6998814075743,,,0,,,,
16040636,,"Álfatangi",,64.170266,-21.708993,,,0,,,,
16040637,,"Brekkutangi",,64.169378,-21.715147,,,0,,,,
16040638,,"Bollatangi",,64.168442,-21.717853,,,0,,,,
16040639,,"Lágafellsskóli",,64.166032,-21.72591,,,0,,,,
16040641,,"Skálatún",,64.159296,-21.725839,,,0,,,,
16040649,,"Klapparhlíð",,64.162987,-21.728159,,,0,,,,
16040650,,"Völuteigur",,64.160714,-21.68113,,,0,,,,
16040651,,"Völuteigur",,64.161111,-21.681836,,,0,,,,
16040652,,"Bæjarás",,64.170692,-21.679204,,,0,,,,
16040653,,"Leirvogstunga",,64.183772,-21.682118,,,0,,,,
16040655,,"Reykjalundur",,64.162784,-21.66382,,,0,,,,
16040656,,"Tjaldanes",,64.180301,-21.635617,,,0,,,,
16040657,,"Mosfell",,64.180536,-21.619704,,,0,,,,
16040658,,"Roðamói",,64.180738,-21.606306,,,0,,,,
16040659,,"Laxnes",,64.180337,-21.590415,,,0,,,,
16040660,,"Roðamói",,64.18083,-21.606564,,,0,,,,
16040661,,"Mosfell",,64.180615,-21.619987,,,0,,,,
16040662,,"Tjaldanes",,64.18039,-21.635743,,,0,,,,
16040663,,"Álafoss",,64.1674549312659,-21.6825120604026,,,0,,,,
16040666,,"Helgafellsskóli",,64.1673578872702,-21.664741757037,,,0,,,,
16040667,,"Vefarastræti",,64.1689672717032,-21.6714987268818,,,0,,,,
16040668,,"Álafoss",,64.1675276419087,-21.6820541257391,,,0,,,,
16040669,,"FMOS",,64.1656954722233,-21.7034970207252,,,0,,,,
16049670,,"Laxatunga",,64.1816750307885,-21.6919785651855,,,0,,,,
16049671,,"Tungubakkar",,64.1845172585536,-21.694540913184,,,0,,,,
16049672,,"Laxatunga",,64.1815937735662,-21.6925666485543,,,0,,,,
16049673,,"Bjarkarholt",,64.1661665888489,-21.6966621476578,,,0,,,,
16049674,,"Hlégarður",,64.1678556347102,-21.692131527505,,,0,,,,
16049675,,"Leirvogstunga",,64.183996,-21.680333,,,0,,,,
20000003,,"Fitjar",,63.973625,-22.54305,,,0,,,,
20000006,,"Fitjar",,63.973935,-22.543178,,,0,,,,
20000007,,"Miðstöð",,63.993969,-22.551521,,,0,,,,
20000008,,"Hringbraut / Norðurtún",,64.000792,-22.559937,,,0,,,,
20000010,,"Nesvellir",,63.991154,-22.549142,,,0,,,,
20000011,,"Bolafótur",,63.985702,-22.549317,,,0,,,,
20000012,,"Steinás",,63.987306,-22.549081,,,0,,,,
20000013,,"Njarðvíkurtorg",,63.988328,-22.548869,,,0,,,,
20000014,,"Stekkjarkot",,63.972134,-22.530116,,,0,,,,
20000015,,"Stekkjarkot",,63.971988,-22.530065,,,0,,,,
20000016,,"Steinás",,63.977047,-22.547051,,,0,,,,
20000017,,"Bolafótur",,63.985411,-22.549051,,,0,,,,
20000018,,"Njarðvíkurtorg",,63.987696,-22.548561,,,0,,,,
20000020,,"Fjölbrautaskóli Suðurnesja / FS",,63.996435,-22.562531,,,0,,,,
20000021,,"Holtaskóli",,63.99847,-22.562761,,,0,,,,
20000022,,"Hringbraut / Norðurtún",,64.00089,-22.559641,,,0,,,,
20000024,,"Tjarnarhverfi",,63.969848,-22.513746,,,0,,,,
20000025,,"Tjarnarhverfi",,63.968518,-22.514284,,,0,,,,
20000026,,"Kirkjuvogur",,63.934303,-22.687508,,,0,,,,
20000027,,"Landnámsbærinn",,63.935349,-22.685721,,,0,,,,
20000028,,"Djúpivogur",,63.933274,-22.682975,,,0,,,,
20000029,,"Seljavogur",,63.933638,-22.680521,,,0,,,,
20000033,,"Eldey",,63.967085,-22.581452,,,0,,,,
20000034,,"Fjörheimar",,63.973134,-22.580261,,,0,,,,
20000036,,"Álsvellir",,64.00289,-22.57961,,,0,,,,
20000041,,"Keilir",,63.969351,-22.570984,,,0,,,,
20000042,,"Keilisbraut",,63.97147,-22.575254,,,0,,,,
20000045,,"Bogabraut",,63.972781,-22.56637,,,0,,,,
20000047,,"Grænásbraut",,63.975469,-22.565975,,,0,,,,
20000049,,"Skógartorg",,63.971999,-22.558921,,,0,,,,
20000051,,"Grænás",,63.981577,-22.557891,,,0,,,,
20000053,,"Ólafslundur",,63.990053,-22.554063,,,0,,,,
20000057,,"Hjallavegur (Reykjanesbær)",,63.989424,-22.550978,,,0,,,,
20000058,,"Krossmói",,63.993639,-22.549056,,,0,,,,
20000059,,"Reykjavíkurtorg",,63.99498,-22.550085,,,0,,,,
20000060,,"Vatnsholt",,64.000254,-22.576353,,,0,,,,
20000061,,"Baldursgarður",,64.002165,-22.570368,,,0,,,,
20000063,,"Heiðarsel",,64.009702,-22.575426,,,0,,,,
20000064,,"Heiðarendi",,64.010964,-22.575363,,,0,,,,
20000067,,"Aðalgata",,64.003242,-22.564256,,,0,,,,
20000069,,"Vesturgata",,64.005994,-22.564646,,,0,,,,
20000072,,"Myllubakkaskóli",,64.001117,-22.556697,,,0,,,,
20000073,,"Hornbjarg",,64.002764,-22.558661,,,0,,,,
20000087,,"Stekkjargata",,63.973027,-22.522569,,,0,,,,
20000090,,"Akurskóli",,63.974372,-22.512978,,,0,,,,
20000092,,"Spóatjörn",,63.97499,-22.505276,,,0,,,,
20000094,,"Hafdalur",,63.974385,-22.50035,,,0,,,,
20000095,,"Unnardalur",,63.972477,-22.495793,,,0,,,,
20000096,,"Aspardalur",,63.97101,-22.490074,,,0,,,,
20000098,,"Keilir",,63.96946,-22.571307,,,0,,,,
20000099,,"Grænás",,63.981447,-22.558577,,,0,,,,
20000100,,"Heiðargarður",,64.004759,-22.57717,,,0,,,,
20000101,,"Heiðarskóli",,64.006563,-22.575019,,,0,,,,
20000110,,"KEF - Airport",,63.9970686450498,-22.628119,,,0,,,,
20000118,,"Akurskóli",,63.974507,-22.512817,,,0,,,,
20000128,,"Bogabraut",,63.9722,-22.565779,,,0,,,,
20000132,,"Hringbraut / Melteigur",,64.005568,-22.565461,,,0,,,,
20000133,,"Hringbraut / Knattspyrnuvöllur",,63.9983377440799,-22.5565331531079,,,0,,,,
20000134,,"Hringbraut / Knattspyrnuvöllur",,63.9983712228349,-22.5564066411808,,,0,,,,
20000135,,"Hringbraut / Melteigur",,64.006591,-22.565913,,,0,,,,
20000201,,"Geirdalur",,63.971422,-22.481774,,,0,,,,
20000204,,"Spóatjörn",,63.975008,-22.506048,,,0,,,,
20000247,,"Hafdalur",,63.974637,-22.500403,,,0,,,,
20000248,,"Stekkjargata",,63.973284,-22.521812,,,0,,,,
20000250,,"Reykjaneshöll",,63.994958,-22.555162,,,0,,,,
20000251,,"Skólavegur",,63.995951,-22.567352,,,0,,,,
20000252,,"Kirkjuvegur",,64.004656,-22.560814,,,0,,,,
20000253,,"Holtaskóli",,63.998574,-22.563158,,,0,,,,
20000254,,"Skólavegur",,63.99602,-22.568029,,,0,,,,
20000255,,"Reykjaneshöll",,63.994811,-22.555116,,,0,,,,
20000256,,"Steinás",,63.977175,-22.547549,,,0,,,,
20000258,,"Skógarbraut",,63.972223,-22.552513,,,0,,,,
20000259,,"Háaleitisbraut",,63.968071,-22.591481,,,0,,,,
20000260,,"Flugbraut",,63.972241,-22.588432,,,0,,,,
20000261,,"Miðstöð",,63.993969,-22.551521,,,0,,,,
20000262,,"Unnardalur",,63.9726,-22.4957,,,0,,,,
20000609,,"Aspardalur",,63.971153,-22.490191,,,0,,,,
23000001,,"Grindavík - Aðalbraut",,63.843765,-22.435763,,,0,,,,
23000002,,"Lögreglustöðin Grindavík",,63.8394590907833,-22.4378256077291,,,0,,,,
25030001,,"Íþróttamiðstöðin Sandgerði",,64.033948,-22.700544,,,0,,,,
25030002,,"Varðan",,64.038352,-22.704308,,,0,,,,
25030003,,"Þekkingarsetur Suðurnesja",,64.0410853226981,-22.7122089563306,,,0,,,,
25040002,,"Pósthúsið Garði / Garður",,64.069799,-22.651014,,,0,,,,
25040005,,"Nýjaland",,64.075932,-22.668548,,,0,,,,
25040006,,"Garðvangur",,64.0720646878747,-22.6573187676109,,,0,,,,
25040007,,"Garðvangur",,64.0721529,-22.65728441,,,0,,,,
25040008,,"Vellir",,64.0642510400643,-22.6398019094077,,,0,,,,
25040009,,"Vellir",,64.0642880690852,-22.639762033331,,,0,,,,
25060001,,"Grindavíkurafleggjari",,63.96244,-22.42051,,,0,,,,
25060002,,"Vogaafleggjari",,63.97496200908406,-22.359457974205014,,,0,,,,
25060003,,"Sveitarfélagið Vogar",,63.982788,-22.379973,,,0,,,,
25060005,,"Vogaafleggjari",,63.9736092996408,-22.3576843410923,,,0,,,,
25060006,,"Vogaafleggjari á leið 87",,63.97503988538583,-22.35933248944599,,,0,,,,
25060007,,"Vogaafleggjari á leið 87",,63.97316134713294,-22.35752317148967,,,0,,,,
30001807,,"Garðabraut",,64.319621,-22.063736,,,0,,,,
30001808,,"Bæjarskrifstofan",,64.320347,-22.069842,,,0,,,,
30001809,,"Kirkjubraut / Stillholt",,64.321487,-22.075413,,,0,,,,
30001810,,"Akratorg",,64.31702,-22.083791,,,0,,,,
30001811,,"Kirkjubraut / Stillholt",,64.321424,-22.074951,,,0,,,,
30001812,,"Bæjarskrifstofan",,64.320495,-22.070502,,,0,,,,
30001813,,"Garðabraut",,64.319543,-22.063943,,,0,,,,
30001822,,"Þjóðbraut",,64.326607442924,-22.0547478363332,,,0,,,,
30001823,,"Innnesvegur",,64.319885,-22.059071,,,0,,,,
30001824,,"Innnesvegur",,64.320122,-22.059034,,,0,,,,
30001825,,"Þjóðbraut",,64.3266320953141,-22.0541501240127,,,0,,,,
30001827,,"Bresaflöt",,64.322727,-22.057072,,,0,,,,
30001828,,"Bresaflöt",,64.322708,-22.05672,,,0,,,,
31770001,,"Stykkishólmur - höfnin",,65.077996,-22.72399,,,0,,,,
31770002,,"Stykkishólmur - Olís",,65.072023,-22.733308,,,0,,,,
35111819,,"Melahverfi",,64.38244,-21.849571,,,0,,,,
36091900,,"Borgarnes",,64.54366,-21.911567,,,0,,,,
36091901,,"Bifröst",,64.766313,-21.552072,,,0,,,,
36091906,,"Baula",,64.674734,-21.666195,,,0,,,,
37090001,,"Grundarfjörður",,64.925097,-23.260496,,,0,,,,
37100001,,"Vatnaleið",,64.9657155788255,-22.8892991922126,,,0,,,,
37130001,,"Vegamót",,64.849237,-22.733502,,,0,,,,
37140001,,"Ólafsvík",,64.893979,-23.704382,,,0,,,,
37140002,,"Rif",,64.921473,-23.829734,,,0,,,,
37140003,,"Hellissandur",,64.917249,-23.883747,,,0,,,,
38110001,,"Búðardalur",,65.108063,-21.763202,,,0,,,,
38110002,,"Skriðuland",,65.3821852089881,-21.8762267930329,,,0,,,,
45020001,,"Króksfjarðarnes",,65.45467,-21.923182,,,0,,,,
45020004,,"Króksfjarðarnes",,65.4546979433328,-21.9240412068599,,,0,,,,
49080001,,"Staðarskáli",,65.144715,-21.083616,,,0,,,,
49110001,,"Hólmavík - Kaupfélag",,65.700898,-21.685735,,,0,,,,
49110002,,"Reykjanes",,65.927222,-22.4275,,,0,,,,
49110003,,"Heydalur",,65.931111,-22.581667,,,0,,,,
49110004,,"Súðavík",,66.025833,-22.991389,,,0,,,,
49110005,,"Ísafjörður Edinborgarhús",,66.071111,-23.121944,,,0,,,,
49110006,,"Patreksfjörður",,65.598056,-24.000278,,,0,,,,
49110008,,"Brjánslækur",,65.52988,-23.1936,,,0,,,,
49110009,,"Flókalundur",,65.576111,-23.168056,,,0,,,,
49110010,,"Dynjandi",,65.736667,-23.208889,,,0,,,,
49110011,,"Þingeyri",,65.876389,-23.488889,,,0,,,,
49110012,,"Ísafjörður Aðalstræti/Edinborgarhús",,66.070556,-23.121667,,,0,,,,
52000001,,"Sauðárkrókur - N1",,65.740862,-19.637706,,,0,,,,
52000002,,"Varmahlíð",,65.553491,-19.446279,,,0,,,,
55080001,,"Hvammstangavegur",,65.3524758007671,-20.8844365209368,,,0,,,,
55080003,,"Víðigerði",,65.381,-20.645,,,0,,,,
56040001,,"Blönduós",,65.659872,-20.2769,,,0,,,,
56110001,,"Skagaströnd",,65.8242363570201,-20.300123841206,,,0,,,,
60000001,,"Miðbær",,65.683053,-18.09,,,0,,,,
60000007,,"Þórunnarstræti / MA",,65.676412,-18.098052,,,0,,,,
60000009,,"Þórunnarstræti / Hlíð",,65.675047,-18.097684,,,0,,,,
60000010,,"Þórunnarstræti / Sjúkrahús",,65.673714,-18.096709,,,0,,,,
60000011,,"Þórunnarstræti / Sjúkrahús",,65.673563,-18.097146,,,0,,,,
60000012,,"Þórunnarstræti / Búðartröð",,65.67051,-18.095514,,,0,,,,
60000013,,"Þórunnarstræti / Lækjargata",,65.668507,-18.095915,,,0,,,,
60000015,,"Naustabraut / Krókeyrarnöf",,65.664222,-18.090241,,,0,,,,
60000019,,"Naustagata / Vallartún",,65.661674,-18.094439,,,0,,,,
60000020,,"Naustagata / Vallartún",,65.66135,-18.09669,,,0,,,,
60000021,,"Kjarnagata / Sómatún",,65.662827,-18.099084,,,0,,,,
60000022,,"Kjarnagata / Sómatún",,65.66261342145005,-18.099030650297166,,,0,,,,
60000023,,"Naustaskóli",,65.665331,-18.101314,,,0,,,,
60000024,,"Naustaskóli",,65.665231,-18.101313,,,0,,,,
60000027,,"Kjarnagata / Bónus",,65.668767,-18.108311,,,0,,,,
60000028,,"Kjarnagata / Ásatún",,65.668827,-18.108455,,,0,,,,
60000029,,"Mýrarvegur / Hringteigur",,65.669796,-18.101431,,,0,,,,
60000030,,"Mýrarvegur / Hringteigur",,65.669739,-18.101614,,,0,,,,
60000031,,"VMA",,65.671948,-18.104293,,,0,,,,
60000035,,"Skógarlundur / Birkilundur",,65.6743,-18.1074,,,0,,,,
60000037,,"Skógarlundur / Hlíðarlundur",,65.673676,-18.115512,,,0,,,,
60000038,,"Skógarlundur / Hjallalundur",,65.674142,-18.119973,,,0,,,,
60000039,,"Skógarlundur / Hjallalundur",,65.673827,-18.118833,,,0,,,,
60000040,,"Skógarlundur / Hrísalundur",,65.676372,-18.122134,,,0,,,,
60000041,,"Skógarlundur / Furulundur",,65.676092,-18.122203,,,0,,,,
60000042,,"Þingvallastræti / Hrísalundur",,65.67796,-18.118367,,,0,,,,
60000043,,"Þingvallastræti / Grundargerði",,65.678032,-18.119354,,,0,,,,
60000045,,"Þingvallastræti / Dalsbraut",,65.678355,-18.112794,,,0,,,,
60000052,,"Þórunnarstræti / Hamarstígur",,65.68085,-18.100242,,,0,,,,
60000053,,"Þórunnarstrætí / Hamarstígur",,65.681825,-18.100031,,,0,,,,
60000054,,"Þórunnarstræti / Lögreglustöð",,65.684553,-18.100572,,,0,,,,
60000055,,"Þórunnarstræti / Lögreglustöð",,65.685086,-18.100399,,,0,,,,
60000056,,"Glerárgata / Þórunnarstræti",,65.687484,-18.098031,,,0,,,,
60000057,,"Drottningarbraut",,65.680149,-18.087338,,,0,,,,
60000061,,"Aðalstræti / Duggufjara",,65.668997,-18.085852,,,0,,,,
60000062,,"Aðalstræti / Duggufjara",,65.66892,-18.08582,,,0,,,,
60000063,,"Aðalstræti / Minjasafn",,65.666318,-18.084971,,,0,,,,
60000064,,"Aðalstræti / Minjasafn",,65.666535,-18.084775,,,0,,,,
60000065,,"Skautahöll",,65.664106,-18.082991,,,0,,,,
60000066,,"Skautahöll",,65.664067,-18.083244,,,0,,,,
60000067,,"Miðhúsabraut",,65.661629,-18.084111,,,0,,,,
60000068,,"Miðhúsabraut",,65.661222,-18.08483,,,0,,,,
60000069,,"Glerárgata / Eiðsvallagata",,65.685509,-18.091164,,,0,,,,
60000070,,"Glerárgata / Eyrarvegur",,65.687259,-18.096295,,,0,,,,
60000071,,"Borgarbraut / Glerártorg",,65.688442,-18.103093,,,0,,,,
60000072,,"Borgarbraut / Glerártorg",,65.688173,-18.103687,,,0,,,,
60000073,,"Borgarbraut / Háskóli",,65.687106,-18.120173,,,0,,,,
60000074,,"Borgarbraut / Háskóli",,65.687289,-18.122405,,,0,,,,
60000075,,"Hlíðarbraut / Borgarbraut",,65.686596,-18.129162,,,0,,,,
60000076,,"Merkigil / Kiðagil",,65.684259,-18.130902,,,0,,,,
60000077,,"Merkigil / Kiðagil",,65.684187,-18.131765,,,0,,,,
60000078,,"Merkigil / Vesturgil",,65.683851,-18.138579,,,0,,,,
60000079,,"Merkigil / Vesturgil",,65.683492,-18.138369,,,0,,,,
60000080,,"Merkigil / Skuggagil",,65.68549,-18.14048,,,0,,,,
60000081,,"Merkigil / Urðargil",,65.687645,-18.141245,,,0,,,,
60000082,,"Merkigil / Urðargil",,65.687563,-18.141172,,,0,,,,
60000083,,"Bugðusíða / Núpasíða",,65.688269,-18.136218,,,0,,,,
60000084,,"Bugðusíða / Vestursíða",,65.688803,-18.135289,,,0,,,,
60000085,,"Vestursíða / Lögmannshlíð",,65.689778,-18.138472,,,0,,,,
60000086,,"Vestursíða / Lögmannshlíð",,65.689528,-18.137961,,,0,,,,
60000087,,"Vestursíða / Brattasíða",,65.691614,-18.14159,,,0,,,,
60000088,,"Vestursíða / Brattasíða",,65.691989,-18.141542,,,0,,,,
60000089,,"Vestursíða / Bæjarsíða",,65.694333,-18.143371,,,0,,,,
60000090,,"Vestursíða / Bæjarsíða",,65.694557,-18.14418,,,0,,,,
60000091,,"Miðsíða",,65.69608,-18.14319,,,0,,,,
60000092,,"Miðsíða / Móasíða",,65.696066,-18.142001,,,0,,,,
60000093,,"Miðsíða / Múlasíða",,65.694974,-18.136863,,,0,,,,
60000094,,"Miðsíða / Múlasíða",,65.694808,-18.13657,,,0,,,,
60000095,,"Bugðusíða / Bjarg",,65.694203,-18.132513,,,0,,,,
60000096,,"Bugðusíða / Bjarg",,65.694296,-18.132572,,,0,,,,
60000097,,"Austursíða / Lindarsíða",,65.695,-18.12924,,,0,,,,
60000098,,"Austursíða / Lindarsíða",,65.694946,-18.129359,,,0,,,,
60000103,,"Skarðshlíð / Sunnuhlíð",,65.691181,-18.126235,,,0,,,,
60000105,,"Skarðshlíð / Fosshlíð",,65.689081,-18.124116,,,0,,,,
60000108,,"Glerárskóli",,65.68822,-18.117563,,,0,,,,
60000110,,"Höfðahlíð / Áshlíð",,65.68837,-18.112498,,,0,,,,
60000112,,"Hlíðarból",,65.690419,-18.109798,,,0,,,,
60000113,,"Hörgárbraut / Þverholt",,65.693625,-18.114872,,,0,,,,
60000114,,"Hörgárbraut / Undirhlíð",,65.691858,-18.109864,,,0,,,,
60000115,,"Hörgárbraut / Stórholt",,65.690776,-18.107598,,,0,,,,
60000116,,"Hörgárbraut / Stórholt",,65.69093,-18.107199,,,0,,,,
60000117,,"Glerárbrú",,65.689287,-18.102869,,,0,,,,
60000118,,"Glerárbrú",,65.689223,-18.103407,,,0,,,,
60000119,,"Tryggvabraut / Hvannavellir",,65.689801,-18.09744,,,0,,,,
60000120,,"Hjalteyrargata / Furuvellir",,65.691337,-18.091652,,,0,,,,
60000123,,"Hjalteyrargata / Gránufélagsgata",,65.686749,-18.082842,,,0,,,,
60000124,,"Réttarhvammur",,65.679715,-18.131744,,,0,,,,
60000125,,"Réttarhvammur",,65.678866,-18.131584,,,0,,,,
60000126,,"Þingvallastræti / Pálmholt",,65.677699,-18.12388,,,0,,,,
60000128,,"Skógarlundur / Hlíðarlundur",,65.673686,-18.114603,,,0,,,,
60000130,,"Þingvallastræti / Furulundur",,65.677423,-18.126252,,,0,,,,
60000132,,"Hjalteyrargata / Grenivellir",,65.689563,-18.086457,,,0,,,,
60000137,,"Þingvallastræti / Byggðavegur",,65.679119,-18.103151,,,0,,,,
60000139,,"Kaupvangsstræti",,65.680587,-18.090284,,,0,,,,
60000140,,"Hlíðarbraut / Tröllagil",,65.686593,-18.129323,,,0,,,,
60000141,,"Glerárgata / Ráðhús",,65.685184,-18.091117,,,0,,,,
60000142,,"Tryggvabraut / Slökkvistöð",,65.691062,-18.093708,,,0,,,,
60000143,,"Tryggvabraut / Hvannavellir",,65.689918,-18.097514,,,0,,,,
60000150,,"Akureyri - Hof",,65.68395,-18.08767,,,0,,,,
60000151,,"Hjalteyrargata / Gránufélagsgata",,65.68643,-18.0832,,,0,,,,
60000152,,"Hjalteyrargata / Grenivellir",,65.68965,-18.0865,,,0,,,,
60000153,,"Skarðshlíð / Undirhlíð",,65.69111,-18.1118,,,0,,,,
60000154,,"Skarðshlíð / Boginn",,65.693,-18.1184,,,0,,,,
60000155,,"Smárahlíð",,65.69277,-18.1254,,,0,,,,
60000156,,"Hlíðarbraut / Austursíða",,65.6948,-18.1255,,,0,,,,
60000157,,"Smárahlíð",,65.69275,-18.1255,,,0,,,,
60000158,,"Skarðshlíð / Boginn",,65.69296,-18.1185,,,0,,,,
60000159,,"Skarðshlíð / Undirhlíð",,65.69095,-18.1115,,,0,,,,
60000160,,"Merkigil / Skuggagil",,65.685215,-18.139989,,,0,,,,
60000161,,"Dalsbraut / Stóragerði",,65.6804,-18.1159,,,0,,,,
60000162,,"Dalsbraut / Klettaborg",,65.68494,-18.1152,,,0,,,,
60000163,,"Dalsbraut / Norðurslóð",,65.68426,-18.1158,,,0,,,,
60000164,,"Dalsbraut / Stóragerði",,65.67955,-18.1159,,,0,,,,
60000165,,"Þingvallastræti / Mýrarvegur",,65.678781,-18.108669,,,0,,,,
60000166,,"Þórunnarstræti / Íþróttahöll",,65.67809,-18.09917,,,0,,,,
60000167,,"Skógarlundur / Birkilundur",,65.67435,-18.1073,,,0,,,,
60000168,,"Naustabraut / Krókeyrarnöf",,65.66405447349584,-18.089940233135227,,,0,,,,
60000169,,"Þórunnarstræti / Lækjargata",,65.66857,-18.0957,,,0,,,,
60000170,,"Þórunnarstræti / Búðartröð",,65.67141,-18.0958,,,0,,,,
60000172,,"Þórunnarstræti / Íþróttahöll",,65.67835,-18.099,,,0,,,,
60000173,,"Þingvallastræti / Byggðavegur",,65.67931,-18.1016,,,0,,,,
60000174,,"Þingvallastræti / Mýrarvegur",,65.67877,-18.1086,,,0,,,,
60000175,,"Hafnarstræti / Aðalstræti",,65.67218,-18.0859,,,0,,,,
60000176,,"Hafnarstræti / Aðalstræti",,65.67254,-18.0863,,,0,,,,
60000177,,"Drottningarbraut",,65.6801,-18.0872,,,0,,,,
60000178,,"Þingvallastræti / Dalsbraut",,65.678262,-18.115904,,,0,,,,
60000179,,"Kjarnagata / Naustagata",,65.66119874100765,-18.098967550926215,,,0,,,,
60000183,,"Kjarnagata / Jóninnuhagi A",,65.65655,-18.09705,,,0,,,,
60000184,,"Kjarnagata / Jóninnuhagi V",,65.6564564225005,-18.097273609787,,,0,,,,
60000185,,"Wilhelmínugata / Nonnahagi N",,65.65662492584514,-18.090498658895502,,,0,,,,
60000186,,"Wilhelmínugata / Nonnahagi S",,65.65660849903534,-18.09031889203071,,,0,,,,
60000187,,"Naustabraut / Davíðshagi V",,65.65963629117186,-18.09007051041603,,,0,,,,
60000188,,"Naustabraut / Davíðshagi A",,65.65982,-18.09021,,,0,,,,
60000189,,"Kjarnagata / Geirþrúðarhagi A",,65.65866,-18.09951,,,0,,,,
60000190,,"Kjarnagata / Elísabetarhagi",,65.660625,-18.099883,,,0,,,,
60000191,,"Kjarnagata / Geirþrúðarhagi V",,65.65841905541554,-18.099413347221375,,,0,,,,
60000192,,"VMA",,65.67163900961405,-18.10389299660839,,,0,,,,
61000001,,"Húsavík",,66.046915,-17.343375,,,0,,,,
61000005,,"Jökulsá á Fjöllum",,65.626341,-16.17725,,,0,,,,
62500001,,"Ólafsfjörður - Aðalgata",,66.07082,-18.655939,,,0,,,,
62500002,,"Siglufjörður - Olís",,66.149834,-18.903148,,,0,,,,
62500003,,"Siglufjörður - Snorragata suður",,66.142078,-18.915306,,,0,,,,
62500004,,"Siglufjörður - Snorragata suður",,66.141952,-18.915041,,,0,,,,
62500005,,"Ólafsfjörður - Aðalgata",,66.070939,-18.657531,,,0,,,,
62500006,,"Ólafsfjörður - Múlavegur",,66.074536,-18.642085,,,0,,,,
62500007,,"Ólafsfjörður - Múlavegur",,66.074606,-18.642297,,,0,,,,
64000001,,"Dalvík",,65.966988,-18.529751,,,0,,,,
65060001,,"Hjalteyri - Vegamót",,65.758471,-18.232226,,,0,,,,
65060002,,"Litli Árskógssandur - Vegamót",,65.928321,-18.364432,,,0,,,,
66070001,,"Mývatn - Reykjahlíð",,65.642,-16.911,,,0,,,,
66070002,,"Skútustaðir",,65.567,-17.029,,,0,,,,
66090001,,"Aðaldalsvegur",,65.886061,-17.437669,,,0,,,,
66120001,,"Fnjóskárbrú",,65.7467,-17.912,,,0,,,,
66120002,,"Norðausturvegur",,65.705251,-17.622566,,,0,,,,
66120003,,"Fosshóll - Goðafoss",,65.686,-17.539,,,0,,,,
66120004,,"Laugar",,65.7211000968779,-17.3719457585166,,,0,,,,
66120005,,"Laugar - Einarsstaðaskáli",,65.7381532924222,-17.4090906750738,,,0,,,,
70007101,,"Seyðisfjörður - Herðubreið",,65.2601,-14.0067,,,0,,,,
73007351,,"Reyðarfjörður / Fjarðarbyggðarhöllin",,65.0339,-14.2121,,,0,,,,
73007352,,"Reyðarfjörður - Barkur",,65.0313,-14.2068,,,0,,,,
73007353,,"Reyðarfjörður - Molinn",,65.0323,-14.2186,,,0,,,,
73007354,,"Reyðarfjörður - Orkuskálinn",,65.0344,-14.2278,,,0,,,,
73007356,,"Eskifjörður - Sundlaug",,65.0773,-14.035,,,0,,,,
73007357,,"Eskifjörður - Shellskáli",,65.0758,-14.0221,,,0,,,,
73007358,,"Eskifjörður - Steinholt",,65.0666,-14.0038,,,0,,,,
73007359,,"Eskifjörður - Valhöll",,65.0708,-14.0131,,,0,,,,
73007360,,"Reyðarfjörður - Launafl",,65.03045,-14.12365,,,0,,,,
73007401,,"Norðfjörður - Nesbakki",,65.1485,-13.668,,,0,,,,
73007402,,"Norðfjörður - VA",,65.1489,-13.6785,,,0,,,,
73007403,,"Norðfjörður - Miðstræti",,65.1484,-13.69,,,0,,,,
73007404,,"Norðfjörður - Hafnarbraut",,65.1479,-13.6982,,,0,,,,
73007405,,"Norðfjörður - Orkuskálinn",,65.1475,-13.7069,,,0,,,,
73007551,,"Fáskrúðsfjörður - Kirkjugarður",,64.9342,-14.0281,,,0,,,,
73007553,,"Fáskrúðsfjörður - Skrúður",,64.9292,-14.0076,,,0,,,,
73007557,,"Stöðvarfjörður - Brekkan",,64.833,-13.8738,,,0,,,,
73007558,,"Reyðarfjörður - Barkur",,65.031219,-14.206566,,,0,,,,
75097201,,"Borgarfjörður - Fjarðarborg",,65.5274,-13.8172,,,0,,,,
76137601,,"Breiðdalsvík - Kaupfjelagið",,64.7921,-14.0094,,,0,,,,
76177651,,"Djúpivogur - Hótel Framtíð",,64.6563,-14.2807,,,0,,,,
76200001,,"Vopnafjörður - Vegamót",,65.459261,-15.50708,,,0,,,,
76200002,,"Skjöldólfsstaðir",,65.31667,-15.1163,,,0,,,,
76200003,,"Fellabær - Olís",,65.2825,-14.4257,,,0,,,,
76200005,,"Egilsstaðir - Tjaldsvæðið",,65.2587083533151,-14.4069628003902,,,0,,,,
76207002,,"Egilsstaðir - Flugvöllur",,65.2748,-14.4062,,,0,,,,
76207005,,"Egilsstaðir - Íþróttamiðstöð",,65.2668,-14.3965,,,0,,,,
77080001,,"Höfn í Hornafirði - Sundlaug",,64.254227,-15.207482,,,0,,,,
77080002,,"Freysnes",,63.990386,-16.893033,,,0,,,,
77080003,,"Skaftafell",,64.015611,-16.965545,,,0,,,,
77080004,,"Skaftafell",,64.015599,-16.9654,,,0,,,,
77080005,,"Freysnes",,63.990355,-16.893124,,,0,,,,
77080007,,"Jökulsárlón",,64.048489,-16.178764,,,0,,,,
77080008,,"Jökulsárlón",,64.048489,-16.178764,,,0,,,,
77087801,,"Höfn - Flugvöllur",,64.3022,-15.2262,,,0,,,,
77087802,,"Höfn - Tjaldsvæði",,64.25819,-15.20395,,,0,,,,
80000001,,"Landeyjahöfn",,63.5302704101473,-20.1174929082944,,,0,,,,
82000001,,"Selfoss - N1",,63.937022,-20.987522,,,0,,,,
82000002,,"Selfoss - Ráðhúsið",,63.937351,-21.001897,,,0,,,,
82000003,,"Hrísmýri",,63.9458672278451,-21.009603245661,,,0,,,,
82000004,,"Fossnes",,63.9454144510351,-21.0112135226167,,,0,,,,
82000005,,"Selfoss - Ráðhúsið",,63.937271,-21.001902,,,0,,,,
82000006,,"Selfoss - FSU",,63.932287,-20.999224,,,0,,,,
82000011,,"Selfoss - Vallaskóli",,63.933829,-20.995979,,,0,,,,
82000012,,"Selfoss - Sundhöll",,63.935726,-20.998903,,,0,,,,
82000013,,"Selfoss - Sundhöll",,63.935719,-20.998998,,,0,,,,
82000036,,"Selfoss - Vallaskóli",,63.933871,-20.995996,,,0,,,,
85080001,,"Vík í Mýrdal",,63.4176417832814,-19.0005910349656,,,0,,,,
85090002,,"Kirkjubæjarklaustur",,63.793694,-18.03875,,,0,,,,
86130001,,"Hvolsvöllur",,63.749494,-20.23306,,,0,,,,
86130002,,"Hvolsvöllur",,63.749747,-20.232882,,,0,,,,
86130003,,"Skógar",,63.5273201394052,-19.5121962579437,,,0,,,,
86140001,,"Hella",,63.834862,-20.401652,,,0,,,,
86140002,,"Hella",,63.83422284238329,-20.400586675918575,,,0,,,,
87100001,,"Flúðir",,64.1308641273949,-20.3214083190065,,,0,,,,
87160001,,"Hveragerði",,63.995477,-21.184366,,,0,,,,
87160002,,"Hveragerði",,63.995464,-21.184515,,,0,,,,
87170001,,"Þorlákshöfn",,63.85589979992086,-21.38640250960922,,,0,,,,
87190001,,"Borg í Grímsnesi",,64.0746664731188,-20.7643082216857,,,0,,,,
87190003,,"Þrastarlundur",,64.01444,-20.949087,,,0,,,,
87190004,,"Þóroddsstaðir",,64.119065,-20.708499,,,0,,,,
87190005,,"Þóroddsstaðir",,64.119199,-20.708822,,,0,,,,
87200001,,"Brautarholt",,64.023167,-20.521894,,,0,,,,
87200002,,"Skeiða- og Þjórsárdalsvegur",,64.046013,-20.411393,,,0,,,,
87210001,,"Reykholt",,64.177459,-20.453062,,,0,,,,
87210002,,"Laugarás. Bláskógabyggð",,64.1124128088205,-20.5056009277731,,,0,,,,
87210003,,"Laugarvatn",,64.220175,-20.732191,,,0,,,,
90000001,,"Lækjartorg B",,64.147505,-21.934808,,,0,,,,
90000002,,"Þjóðleikhúsið",,64.146762,-21.931048,,,0,,,,
90000003,,"Hallargarðurinn",,64.143101,-21.940088,,,0,,,,
90000004,,"MR",,64.146477,-21.937258,,,0,,,,
90000006,,"BSÍ",,64.137099,-21.933662,,,0,,,,
90000007,,"BSÍ",,64.1379415981625,-21.9339090580538,,,0,,,,
90000009,,"Öskjuhlíð",,64.130841,-21.929604,,,0,,,,
90000011,,"Snorrabraut",,64.13875,-21.92142,,,0,,,,
90000013,,"Kringlan",,64.131921,-21.889215,,,0,,,,
90000015,,"Kringlumýrarbraut",,64.130009,-21.900467,,,0,,,,
90000016,,"Kringlumýrarbraut",,64.129588,-21.899836,,,0,,,,
90000018,,"Ártún B",,64.123754,-21.821591,,,0,,,,
90000019,,"Ártún A",,64.124214,-21.822107,,,0,,,,
90000020,,"Grandi",,64.155814,-21.941402,,,0,,,,
90000021,,"Grandagarður",,64.153043,-21.95107,,,0,,,,
90000022,,"Mýrargata",,64.151381,-21.948571,,,0,,,,
90000029,,"Skarfagarðar",,64.153822,-21.869633,,,0,,,,
90000030,,"Þjóðskjalasafnið",,64.142627,-21.90634,,,0,,,,
90000031,,"Hátún",,64.140661,-21.896676,,,0,,,,
90000032,,"Engjateigur",,64.140142,-21.887948,,,0,,,,
90000033,,"Laugardalshöll",,64.138023,-21.87757,,,0,,,,
90000034,,"Laugardalur",,64.135553,-21.873334,,,0,,,,
90000036,,"Teigar",,64.144585,-21.892053,,,0,,,,
90000037,,"Tún",,64.143826,-21.892754,,,0,,,,
90000038,,"Mörkin",,64.129481,-21.863616,,,0,,,,
90000039,,"Mörkin",,64.129537,-21.863101,,,0,,,,
90000040,,"Skeiðarvogur",,64.132949,-21.85522,,,0,,,,
90000041,,"Heimar",,64.133503,-21.869105,,,0,,,,
90000042,,"Heimar",,64.132639,-21.868289,,,0,,,,
90000044,,"Ljósheimar",,64.13203,-21.863387,,,0,,,,
90000045,,"Glæsibær",,64.133901,-21.867151,,,0,,,,
90000046,,"Laugardalur",,64.136435,-21.874203,,,0,,,,
90000047,,"Laugardalshöll",,64.139196,-21.879543,,,0,,,,
90000048,,"Engjateigur",,64.140317,-21.889824,,,0,,,,
90000049,,"Hátún",,64.141195,-21.898187,,,0,,,,
90000051,,"Skarfagarðar",,64.153716,-21.869696,,,0,,,,
90000052,,"Barónsstígur",,64.144475,-21.918978,,,0,,,,
90000054,,"Þjóðleikhúsið",,64.146842,-21.930941,,,0,,,,
90000055,,"Lækjartorg A",,64.147465,-21.936231,,,0,,,,
90000056,,"Ráðhúsið",,64.14656,-21.942414,,,0,,,,
90000057,,"Ráðhúsið",,64.146262,-21.941607,,,0,,,,
90000061,,"Mýrargata",,64.151683,-21.949006,,,0,,,,
90000062,,"Grandagarður",,64.153109,-21.949784,,,0,,,,
90000063,,"Grunnslóð",,64.154464,-21.947669,,,0,,,,
90000064,,"Fiskislóð",,64.155849,-21.945205,,,0,,,,
90000068,,"Stekkjarbakki",,64.107755,-21.841087,,,0,,,,
90000069,,"Leirubakki",,64.104746,-21.835345,,,0,,,,
90000071,,"Seljakirkja",,64.098158,-21.84683,,,0,,,,
90000072,,"Seljakirkja",,64.098068,-21.846626,,,0,,,,
90000073,,"Eyjabakki",,64.110278,-21.828902,,,0,,,,
90000074,,"Dvergabakki",,64.110315,-21.834713,,,0,,,,
90000075,,"Mjódd",,64.109702,-21.842643,,,1,,,,
90000076,,"Víkin",,64.120518,-21.854944,,,0,,,,
90000077,,"Bústaðakirkja",,64.120819,-21.860312,,,0,,,,
90000078,,"Hörðaland",,64.121407,-21.865543,,,0,,,,
90000079,,"Grímsbær",,64.122632,-21.876022,,,0,,,,
90000080,,"Aðalland",,64.123416,-21.883334,,,0,,,,
90000081,,"Borgarspítalinn",,64.124171,-21.888175,,,0,,,,
90000083,,"RÚV",,64.125811,-21.888448,,,0,,,,
90000084,,"RÚV",,64.125855,-21.887883,,,0,,,,
90000085,,"Glæsibær",,64.133969,-21.866965,,,0,,,,
90000086,,"Fellsmúli",,64.131416,-21.883033,,,0,,,,
90000087,,"Háaleitisbraut",,64.133428,-21.882668,,,0,,,,
90000088,,"Samgöngustofa",,64.136689,-21.887231,,,0,,,,
90000089,,"Lágmúli",,64.137863,-21.891022,,,0,,,,
90000090,,"Háteigsskóli",,64.137294,-21.898216,,,0,,,,
90000091,,"Háteigskirkja",,64.138127,-21.904177,,,0,,,,
90000094,,"Þjóðminjasafnið",,64.142291,-21.949049,,,0,,,,
90000096,,"Grandavegur",,64.14791,-21.960201,,,0,,,,
90000097,,"Meistaravellir",,64.147192,-21.963691,,,0,,,,
90000098,,"KR",,64.146041,-21.965255,,,0,,,,
90000099,,"Kaplaskjólsvegur",,64.144987,-21.969866,,,0,,,,
90000114,,"Kaplaskjól",,64.144683,-21.97099,,,0,,,,
90000115,,"KR",,64.146022,-21.96482,,,0,,,,
90000116,,"Meistaravellir",,64.147147,-21.963372,,,0,,,,
90000117,,"Grandavegur",,64.147845,-21.959979,,,0,,,,
90000121,,"Háteigskirkja",,64.137992,-21.903821,,,0,,,,
90000122,,"Háteigsskóli",,64.137245,-21.898562,,,0,,,,
90000124,,"Lágmúli",,64.137737,-21.89164,,,0,,,,
90000125,,"Samgöngustofa",,64.136179,-21.887205,,,0,,,,
90000126,,"Háaleitisbraut",,64.133848,-21.883877,,,0,,,,
90000127,,"Fellsmúli",,64.131478,-21.883643,,,0,,,,
90000129,,"Þverás",,64.1035448158214,-21.783479,,,0,,,,
90000132,,"Borgarspítalinn",,64.123797,-21.88669,,,0,,,,
90000133,,"Aðalland",,64.123012,-21.881728,,,0,,,,
90000134,,"Grímsbær",,64.122275,-21.874306,,,0,,,,
90000135,,"Hörðaland",,64.121175,-21.864596,,,0,,,,
90000136,,"Bústaðakirkja",,64.12046,-21.858523,,,0,,,,
90000137,,"Víkin",,64.120418,-21.852499,,,0,,,,
90000138,,"Elliðaárdalur",,64.117293,-21.844929,,,0,,,,
90000139,,"Dvergabakki",,64.110215,-21.834442,,,0,,,,
90000140,,"Eyjabakki",,64.110164,-21.82805,,,0,,,,
90000141,,"Hólabrekkuskóli",,64.108002,-21.817555,,,0,,,,
90000142,,"Austurgerði",,64.120923,-21.853696,,,0,,,,
90000143,,"Austurgerði",,64.120938,-21.853898,,,0,,,,
90000144,,"Leirubakki",,64.104907,-21.835333,,,0,,,,
90000145,,"Stekkjarbakki",,64.108241,-21.840572,,,0,,,,
90000146,,"Landspítali Fossvogi",,64.123007,-21.8916,,,0,,,,
90000148,,"Hádegismóar",,64.113864,-21.776368,,,0,,,,
90000150,,"Grundargerði",,64.127956,-21.870843,,,0,,,,
90000151,,"Elliðaárdalur",,64.118984,-21.845509,,,0,,,,
90000154,,"Bæjarháls",,64.120681,-21.808814,,,0,,,,
90000155,,"Vogar",,64.134956,-21.849685,,,0,,,,
90000156,,"Holtagarðar",,64.141338,-21.850282,,,0,,,,
90000157,,"Sægarðar",,64.143242,-21.852083,,,0,,,,
90000158,,"Barðastaðir",,64.156867,-21.750617,,,0,,,,
90000159,,"Sægarðar",,64.142991,-21.852385,,,0,,,,
90000160,,"Sundagarðar",,64.150578,-21.871116,,,0,,,,
90000161,,"Akurgerði",,64.128537,-21.874256,,,0,,,,
90000162,,"LHÍ Laugarnesi",,64.151443,-21.882252,,,0,,,,
90000163,,"Laugalækur",,64.149201,-21.884996,,,0,,,,
90000164,,"Laugarnesvegur",,64.146968,-21.888726,,,0,,,,
90000165,,"Sóltún",,64.146184,-21.89642,,,0,,,,
90000167,,"Landakot",,64.147753,-21.951418,,,0,,,,
90000168,,"Ásvallagata",,64.146702,-21.954384,,,0,,,,
90000169,,"Reynimelur",,64.145408,-21.958063,,,0,,,,
90000170,,"Hagi",,64.143855,-21.962456,,,0,,,,
90000171,,"Melaskóli",,64.142179,-21.958519,,,0,,,,
90000172,,"Kvisthagi",,64.141748,-21.961682,,,0,,,,
90000173,,"Dunhagi",,64.138791,-21.958537,,,0,,,,
90000174,,"Íslensk Erfðagreining",,64.135388,-21.944294,,,0,,,,
90000175,,"Íslensk Erfðagreining",,64.135558,-21.943653,,,0,,,,
90000176,,"Ægisíða",,64.14261,-21.965501,,,0,,,,
90000177,,"Reykjavíkurflugvöllur",,64.132628,-21.949453,,,0,,,,
90000178,,"Reykjavíkurflugvöllur",,64.132695,-21.949187,,,0,,,,
90000179,,"Ásvallagata",,64.146712,-21.95403,,,0,,,,
90000180,,"Landakot",,64.147682,-21.951281,,,0,,,,
90000182,,"Sóltún",,64.146085,-21.895788,,,0,,,,
90000183,,"Laugarnesvegur",,64.146955,-21.888467,,,0,,,,
90000184,,"Laugalækur",,64.149219,-21.884687,,,0,,,,
90000185,,"LHÍ Laugarnesi",,64.150978,-21.882624,,,0,,,,
90000187,,"Dalbraut",,64.150644,-21.875004,,,0,,,,
90000188,,"Laugarás",,64.149018,-21.867406,,,0,,,,
90000190,,"Bakkastaðir",,64.158095,-21.751087,,,0,,,,
90000191,,"Holtagarðar",,64.140213,-21.850696,,,0,,,,
90000192,,"Suðurver",,64.130847,-21.902054,,,0,,,,
90000193,,"Vogar",,64.133594,-21.850187,,,0,,,,
90000198,,"Birtingakvísl",,64.123307,-21.822564,,,0,,,,
90000200,,"Skerjafjörður",,64.126021,-21.94915,,,0,,,,
90000201,,"Skeljanes",,64.128043,-21.946858,,,0,,,,
90000202,,"Skeljanes",,64.12802,-21.947071,,,0,,,,
90000203,,"Bauganes",,64.130487,-21.953125,,,0,,,,
90000204,,"Þorragata",,64.132767,-21.952678,,,0,,,,
90000205,,"Þorragata",,64.132907,-21.953046,,,0,,,,
90000206,,"Skerjagarðar",,64.13562,-21.956062,,,0,,,,
90000207,,"Stúdentagarðar",,64.137293,-21.954183,,,0,,,,
90000208,,"Kvisthagi",,64.141753,-21.961426,,,0,,,,
90000209,,"Hagatorg",,64.141205,-21.954022,,,0,,,,
90000210,,"Þjóðarbókhlaðan",,64.1435118726051,-21.9511478070477,,,0,,,,
90000211,,"Héðinsgata",,64.152135,-21.881371,,,0,,,,
90000212,,"Höfðatorg",,64.14541204235857,-21.907593801033315,,,0,,,,
90000213,,"Laugardalslaug",,64.146651,-21.879681,,,0,,,,
90000214,,"Laugarásvegur",,64.146765,-21.872313,,,0,,,,
90000215,,"Hrafnista",,64.146572,-21.866615,,,0,,,,
90000216,,"Dragavegur",,64.145149,-21.864176,,,0,,,,
90000217,,"Austurbrún",,64.143991,-21.864578,,,0,,,,
90000219,,"Sunnutorg",,64.141077,-21.861326,,,0,,,,
90000220,,"Langholtsskóli",,64.138677,-21.859358,,,0,,,,
90000221,,"Langholtskirkja",,64.13609,-21.856742,,,0,,,,
90000222,,"Skeiðarvogur",,64.133346,-21.854508,,,0,,,,
90000223,,"MS",,64.131214,-21.861475,,,0,,,,
90000224,,"Ármúli",,64.132622,-21.873461,,,0,,,,
90000225,,"Grensás",,64.130304,-21.875175,,,0,,,,
90000226,,"Háskólatorg",,64.140344,-21.950761,,,0,,,,
90000227,,"Þjóðminjasafnið",,64.142334,-21.948415,,,0,,,,
90000228,,"Háagerði",,64.126182,-21.864211,,,0,,,,
90000229,,"Borgargerði",,64.124852,-21.859741,,,0,,,,
90000230,,"Tunguvegur",,64.122957,-21.855559,,,0,,,,
90000231,,"Landspítali Fossvogi",,64.123247,-21.891515,,,0,,,,
90000232,,"Sléttuvegur",,64.123625,-21.894419,,,0,,,,
90000233,,"Dunhagi",,64.13876,-21.957975,,,0,,,,
90000234,,"Tunguvegur",,64.123034,-21.855433,,,0,,,,
90000235,,"Borgargerði",,64.124974,-21.859756,,,0,,,,
90000236,,"Háagerði",,64.126677,-21.865429,,,0,,,,
90000237,,"Grundargerði",,64.128128,-21.871257,,,0,,,,
90000238,,"Akurgerði",,64.128591,-21.874015,,,0,,,,
90000239,,"Grensás",,64.130322,-21.874595,,,0,,,,
90000240,,"Ármúli",,64.1322884879095,-21.8732541943065,,,0,,,,
90000241,,"Ljósheimar",,64.131992,-21.863696,,,0,,,,
90000242,,"MS",,64.131255,-21.86071,,,0,,,,
90000243,,"Langholtskirkja",,64.13609,-21.856421,,,0,,,,
90000244,,"Langholtsskóli",,64.138973,-21.859317,,,0,,,,
90000245,,"Sunnutorg",,64.141084,-21.861124,,,0,,,,
90000246,,"Veröld",,64.139741,-21.951911,,,0,,,,
90000247,,"Austurbrún",,64.143487,-21.864643,,,0,,,,
90000248,,"Dragavegur",,64.145523,-21.863876,,,0,,,,
90000249,,"Hrafnista",,64.146758,-21.867253,,,0,,,,
90000250,,"Laugarásvegur",,64.146877,-21.873929,,,0,,,,
90000251,,"Laugardalslaug",,64.146806,-21.879884,,,0,,,,
90000252,,"Höfðatorg",,64.145431,-21.908257,,,0,,,,
90000253,,"Héðinsgata",,64.15219,-21.880973,,,0,,,,
90000254,,"Þjóðarbókhlaðan",,64.1434555523398,-21.9514627933193,,,0,,,,
90000255,,"Hagatorg",,64.14219,-21.953469,,,0,,,,
90000256,,"Stúdentagarðar",,64.137371,-21.954611,,,0,,,,
90000257,,"Skerjagarðar",,64.135383,-21.956832,,,0,,,,
90000258,,"Bauganes",,64.130376,-21.952942,,,0,,,,
90000259,,"Kjarvalsstaðir",,64.138239,-21.911937,,,0,,,,
90000260,,"Nethylur",,64.122248,-21.814985,,,0,,,,
90000261,,"Birtingakvísl",,64.12348,-21.821,,,0,,,,
90000262,,"Gullinbrú",,64.132432,-21.814488,,,0,,,,
90000263,,"Kjarvalsstaðir",,64.138357,-21.912098,,,0,,,,
90000264,,"Ingunnarskóli",,64.126645,-21.757383,,,0,,,,
90000265,,"Geislabaugur",,64.126738,-21.750591,,,0,,,,
90000266,,"Þórðarsveigur",,64.126209,-21.743942,,,0,,,,
90000267,,"Austurver",,64.127986,-21.886471,,,0,,,,
90000268,,"Borgarleikhús",,64.128443,-21.895755,,,0,,,,
90000269,,"Sæmundarskóli",,64.125863,-21.739942,,,0,,,,
90000270,,"MH",,64.131308,-21.907268,,,0,,,,
90000271,,"Mávahlíð",,64.133428,-21.911563,,,0,,,,
90000272,,"Langahlíð",,64.135537,-21.90984,,,0,,,,
90000273,,"Flókagata",,64.137356,-21.908407,,,0,,,,
90000274,,"Melaskóli",,64.142334,-21.958472,,,0,,,,
90000275,,"Ægisborg",,64.143521,-21.966996,,,0,,,,
90000276,,"Kaplaskjól",,64.144942,-21.97167,,,0,,,,
90000277,,"Öldugrandi",,64.150563,-21.981538,,,0,,,,
90000278,,"Seilugrandi",,64.149861,-21.976382,,,0,,,,
90000279,,"Keilugrandi",,64.149581,-21.971682,,,0,,,,
90000280,,"Boðagrandi",,64.149894,-21.967355,,,0,,,,
90000281,,"JL húsið",,64.150306,-21.959982,,,0,,,,
90000282,,"Flókagata",,64.137408,-21.908803,,,0,,,,
90000283,,"Langahlíð",,64.135505,-21.910372,,,0,,,,
90000284,,"Mávahlíð",,64.133426,-21.911883,,,0,,,,
90000285,,"MH",,64.131194,-21.90699,,,0,,,,
90000286,,"Suðurver",,64.130705,-21.901821,,,0,,,,
90000287,,"Verzló",,64.128162,-21.895203,,,0,,,,
90000288,,"Austurver",,64.12895,-21.885133,,,0,,,,
90000289,,"Þúsöld",,64.128637,-21.767074,,,0,,,,
90000290,,"Maríubaugur",,64.127098,-21.765627,,,0,,,,
90000291,,"Korpa",,64.157483,-21.755442,,,0,,,,
90000292,,"Snorrabraut",,64.138482,-21.921249,,,0,,,,
90000296,,"Háskóli Íslands B",,64.141782,-21.946535,,,0,,,,
90000301,,"Perlan",,64.130145,-21.914348,,,0,,,,
90000302,,"Veðurstofan",,64.12699,-21.907186,,,0,,,,
90000303,,"Rafstöðvarvegur",,64.123938,-21.840328,,,0,,,,
90000304,,"Fylkisvegur",,64.114242,-21.790704,,,0,,,,
90000305,,"Fylkisvegur",,64.11428,-21.790484,,,0,,,,
90000312,,"Stuðlaháls",,64.121594,-21.790839,,,0,,,,
90000315,,"Hraunsás",,64.113179,-21.788441,,,0,,,,
90000316,,"Brekkubær",,64.115511,-21.791777,,,0,,,,
90000317,,"Árbæjarskóli",,64.116201,-21.796686,,,0,,,,
90000318,,"Hábær",,64.116903,-21.801745,,,0,,,,
90000319,,"Fagribær",,64.117902,-21.808532,,,0,,,,
90000320,,"Hraunbær",,64.119824,-21.807887,,,0,,,,
90000321,,"Helluvað",,64.102624,-21.766771,,,0,,,,
90000322,,"Kambavað",,64.100787,-21.765827,,,0,,,,
90000323,,"Bugða",,64.097712,-21.779661,,,0,,,,
90000324,,"Leiti",,64.125435,-21.896738,,,0,,,,
90000325,,"Veðurstofan",,64.127259,-21.907243,,,0,,,,
90000326,,"Perlan",,64.130237,-21.913789,,,0,,,,
90000327,,"Einarsnes",,64.129536,-21.949619,,,0,,,,
90000329,,"Einarsnes",,64.129624,-21.949739,,,0,,,,
90000332,,"Háskóli Íslands A",,64.14222,-21.946825,,,0,,,,
90000333,,"HR",,64.12474928711583,-21.92806444295692,,,0,,,,
90000335,,"Lindarvað",,64.100203,-21.770962,,,0,,,,
90000336,,"Móvað",,64.098996,-21.773999,,,0,,,,
90000338,,"Reiðvað",,64.098217,-21.776816,,,0,,,,
90000343,,"Suðurfell",,64.099588,-21.82799,,,0,,,,
90000344,,"Æsufell",,64.101751,-21.830021,,,0,,,,
90000345,,"Norðurfell",,64.103687,-21.824862,,,0,,,,
90000346,,"Vesturberg",,64.105647,-21.823142,,,0,,,,
90000347,,"Suðurhólar",,64.107929,-21.821143,,,0,,,,
90000348,,"Árbæjarsafn",,64.118633,-21.813898,,,0,,,,
90000349,,"Laxakvísl",,64.121233,-21.817246,,,0,,,,
90000350,,"Sílakvísl",,64.121369,-21.827198,,,0,,,,
90000351,,"Ártúnshöfði",,64.123209,-21.825763,,,0,,,,
90000352,,"Sandavað",,64.099133,-21.780392,,,0,,,,
90000353,,"Bíldshöfði",,64.125553,-21.819096,,,0,,,,
90000354,,"Vagnhöfði",,64.12564,-21.813708,,,0,,,,
90000355,,"Höfðabakki",,64.127211,-21.811826,,,0,,,,
90000356,,"Funafold",,64.13638,-21.806745,,,0,,,,
90000357,,"Hverafold",,64.135579,-21.801782,,,0,,,,
90000358,,"Foldatorg",,64.134635,-21.797646,,,0,,,,
90000359,,"Logafold",,64.135548,-21.793114,,,0,,,,
90000360,,"Reykjafold",,64.137719,-21.790887,,,0,,,,
90000361,,"Fjölnisvöllur",,64.139241,-21.789273,,,0,,,,
90000362,,"Húsaskóli",,64.139278,-21.784549,,,0,,,,
90000363,,"Vallarhús",,64.139608,-21.780282,,,0,,,,
90000364,,"Brekkuhús",,64.138552,-21.776655,,,0,,,,
90000366,,"Spöngin A",,64.150208,-21.791357,,,0,,,,
90000367,,"Borgavegur",,64.149303,-21.787535,,,0,,,,
90000368,,"Mosarimi",,64.145972,-21.787892,,,0,,,,
90000369,,"Miðgarður",,64.144487,-21.791621,,,0,,,,
90000370,,"Flétturimi",,64.142182,-21.792563,,,0,,,,
90000371,,"Berjarimi",,64.140847,-21.794042,,,0,,,,
90000373,,"Vegghamrar",,64.138438,-21.808477,,,0,,,,
90000374,,"Höfðabakki",,64.126982,-21.812224,,,0,,,,
90000375,,"Bjallavað",,64.102854,-21.776629,,,0,,,,
90000376,,"Ártúnshöfði",,64.123281,-21.825963,,,0,,,,
90000377,,"Sílakvísl",,64.121292,-21.82718,,,0,,,,
90000378,,"Laxakvísl",,64.121186,-21.817062,,,0,,,,
90000379,,"Árbæjarsafn",,64.119353,-21.813471,,,0,,,,
90000380,,"Suðurhólar",,64.108298,-21.82107,,,0,,,,
90000381,,"Vesturberg",,64.105379,-21.823632,,,0,,,,
90000382,,"Norðurfell",,64.103132,-21.825614,,,0,,,,
90000383,,"Æsufell",,64.101747,-21.830307,,,0,,,,
90000384,,"Suðurfell",,64.099575,-21.828262,,,0,,,,
90000385,,"Flúðasel",,64.098345,-21.828419,,,0,,,,
90000386,,"Seljabraut",,64.099944,-21.830724,,,0,,,,
90000387,,"Engjasel",,64.102093,-21.833703,,,0,,,,
90000388,,"Gerðhamrar",,64.138277,-21.816292,,,0,,,,
90000389,,"Seljaskógar",,64.103371,-21.835476,,,0,,,,
90000390,,"Dverghamrar",,64.136858,-21.812682,,,0,,,,
90000391,,"Ferjuvað",,64.103829,-21.771664,,,0,,,,
90000394,,"Kænugarðar",,64.151935,-21.864747,,,0,,,,
90000395,,"Skeifan",,64.128503,-21.870422,,,0,,,,
90000396,,"Sogamýri",,64.126326,-21.85755,,,0,,,,
90000397,,"Árvað",,64.1011589996583,-21.7780864171875,,,0,,,,
90000398,,"Hraunbær",,64.119799,-21.808087,,,0,,,,
90000399,,"Fagribær",,64.117812,-21.808415,,,0,,,,
90000400,,"Hábær",,64.11686,-21.801618,,,0,,,,
90000401,,"Árbæjarskóli",,64.116064,-21.796228,,,0,,,,
90000402,,"Brekkubær",,64.115335,-21.791334,,,0,,,,
90000403,,"Hraunsás",,64.113026,-21.787925,,,0,,,,
90000404,,"Næfurás",,64.111407,-21.785881,,,0,,,,
90000405,,"Reykás",,64.109463,-21.787354,,,0,,,,
90000406,,"Sauðás",,64.108063,-21.788401,,,0,,,,
90000407,,"Vallarás",,64.10549,-21.786624,,,0,,,,
90000408,,"Selásskóli",,64.105014,-21.783432,,,0,,,,
90000409,,"Vallarás",,64.105809,-21.786807,,,0,,,,
90000410,,"Skógarás",,64.108103,-21.788205,,,0,,,,
90000411,,"Reykás",,64.109719,-21.786949,,,0,,,,
90000412,,"Næfurás",,64.111586,-21.785536,,,0,,,,
90000413,,"Ártún D",,64.123605,-21.823946,,,0,,,,
90000414,,"Sogamýri",,64.126724,-21.857774,,,0,,,,
90000415,,"Skeifan",,64.128968,-21.871115,,,0,,,,
90000418,,"Korpúlfsstaðir",,64.153683,-21.762822,,,0,,,,
90000419,,"Kænugarðar",,64.152093,-21.865259000000002,,,0,,,,
90000420,,"Barðastaðir",,64.156749,-21.750936,,,0,,,,
90000421,,"Ártún C",,64.124564,-21.823576,,,0,,,,
90000422,,"Heiðargerði",,64.127855,-21.87691,,,0,,,,
90000423,,"Álmgerði",,64.124462,-21.879465,,,0,,,,
90000424,,"Jakasel",,64.096286,-21.827762,,,0,,,,
90000425,,"Jöklasel",,64.094853,-21.830761,,,0,,,,
90000426,,"Klyfjasel",,64.092737,-21.836882,,,0,,,,
90000427,,"Látrasel",,64.093943,-21.841788,,,0,,,,
90000428,,"Holtasel",,64.096073,-21.845218,,,0,,,,
90000429,,"Hólmasel",,64.096551,-21.843836,,,0,,,,
90000431,,"Stíflusel",,64.098761,-21.852779,,,0,,,,
90000432,,"Strandasel",,64.100545,-21.857308,,,0,,,,
90000433,,"ÍR",,64.102522,-21.85006,,,0,,,,
90000434,,"Árskógar",,64.104422,-21.84403,,,0,,,,
90000435,,"Álmgerði",,64.124772,-21.878778,,,0,,,,
90000436,,"Jafnasel",,64.097732,-21.82784,,,0,,,,
90000437,,"Heiðargerði",,64.12789,-21.876432,,,0,,,,
90000438,,"Brúnastaðir",,64.155023,-21.757956,,,0,,,,
90000439,,"Keldnaholt",,64.139366,-21.771997,,,0,,,,
90000440,,"Laufengi",,64.14496,-21.775592,,,0,,,,
90000441,,"Korpa",,64.157507,-21.755284,,,0,,,,
90000442,,"Bakkastaðir",,64.158047,-21.750857,,,0,,,,
90000443,,"Brúnastaðir",,64.155091,-21.758423,,,0,,,,
90000444,,"Fellaskóli",,64.101671,-21.822682,,,0,,,,
90000445,,"Leiknisvöllur",,64.101979,-21.817126,,,0,,,,
90000446,,"FB",,64.10466,-21.816776,,,0,,,,
90000447,,"Hólagarður",,64.107773,-21.815871,,,0,,,,
90000448,,"Þrastarhólar",,64.107739,-21.80942,,,0,,,,
90000449,,"Stelkshólar",,64.109273,-21.804421,,,0,,,,
90000450,,"Smyrilshólar",,64.110244,-21.809901,,,0,,,,
90000451,,"Hrafnhólar",,64.110558,-21.81539,,,0,,,,
90000452,,"Fýlshólar",,64.111675,-21.818467,,,0,,,,
90000453,,"Depluhólar",,64.11029,-21.820872,,,0,,,,
90000455,,"Vættaborgir",,64.152964,-21.785334,,,0,,,,
90000456,,"Lokinhamrar",,64.138306,-21.806982,,,0,,,,
90000457,,"Selásskóli",,64.104935,-21.783863,,,0,,,,
90000458,,"Klambratún",,64.135469,-21.91402,,,0,,,,
90000459,,"Sundagarðar",,64.150767,-21.87136,,,0,,,,
90000460,,"Hlíðar",,64.1338,-21.903618,,,0,,,,
90000461,,"Kringlan",,64.132227,-21.893581,,,0,,,,
90000462,,"Sporhamrar",,64.139654,-21.812038,,,0,,,,
90000467,,"Bláhamrar",,64.137054,-21.810411,,,0,,,,
90000469,,"Egilshöll B",,64.14819,-21.772144,,,0,,,,
90000471,,"Korpúlfsstaðir",,64.153308,-21.764408,,,0,,,,
90000473,,"Vegghamrar",,64.138513,-21.808404,,,0,,,,
90000474,,"Sporhamrar",,64.139761,-21.812023,,,0,,,,
90000475,,"Leiðhamrar",,64.140624,-21.817025,,,0,,,,
90000480,,"Lokinhamrar",,64.137622,-21.808404,,,0,,,,
90000481,,"Hlíðar",,64.134129,-21.903928,,,0,,,,
90000482,,"Dverghamrar",,64.136911,-21.812576,,,0,,,,
90000483,,"Klambratún",,64.136006,-21.916078,,,0,,,,
90000484,,"Víkurskóli",,64.152593,-21.778546,,,0,,,,
90000489,,"Gerðhamrar",,64.138383,-21.816256,,,0,,,,
90000490,,"Rimaflöt",,64.144481,-21.806232,,,0,,,,
90000491,,"Brekkuhús",,64.138692,-21.77671,,,0,,,,
90000492,,"Vallarhús",,64.139618,-21.781186,,,0,,,,
90000493,,"Húsaskóli",,64.139361,-21.784849,,,0,,,,
90000494,,"Fjölnisvöllur",,64.139109,-21.789568,,,0,,,,
90000495,,"Reykjafold",,64.13774,-21.791092,,,0,,,,
90000496,,"Logafold",,64.135625,-21.793327,,,0,,,,
90000497,,"Foldatorg",,64.134852,-21.798156,,,0,,,,
90000498,,"Hverafold",,64.135784,-21.802317,,,0,,,,
90000499,,"Funafold",,64.136535,-21.80702,,,0,,,,
90000500,,"Borgavegur",,64.149625,-21.788861,,,0,,,,
90000501,,"Vættaborgir",,64.153015,-21.785335,,,0,,,,
90000502,,"Víkurskóli",,64.15272,-21.779028,,,0,,,,
90000503,,"Hesthamrar",,64.139427,-21.818164,,,0,,,,
90000504,,"Gullinbrú",,64.133315,-21.813624,,,0,,,,
90000507,,"Leiðhamrar",,64.140539,-21.81694,,,0,,,,
90000508,,"Árskógar",,64.104707,-21.843823,,,0,,,,
90000509,,"ÍR",,64.102635,-21.850158,,,0,,,,
90000510,,"Strandasel",,64.100688,-21.857382,,,0,,,,
90000511,,"Stíflusel",,64.098484,-21.851918,,,0,,,,
90000512,,"Hólmasel",,64.096777,-21.843647,,,0,,,,
90000513,,"Holtasel",,64.095962,-21.845364,,,0,,,,
90000514,,"Látrasel",,64.093635,-21.841113,,,0,,,,
90000515,,"Klyfjasel",,64.092906,-21.836071,,,0,,,,
90000516,,"Jöklasel",,64.094552,-21.831356,,,0,,,,
90000517,,"Jakasel",,64.09639,-21.827377,,,0,,,,
90000518,,"Egilshöll B",,64.148161,-21.772222,,,0,,,,
90000519,,"Egilshöll A",,64.145171,-21.774141,,,0,,,,
90000521,,"Jafnasel",,64.097864,-21.827733,,,0,,,,
90000522,,"Hólabrekkuskóli",,64.107946,-21.81773,,,0,,,,
90000523,,"Hesthamrar",,64.139332,-21.818393,,,0,,,,
90000524,,"FB",,64.104986,-21.817051,,,0,,,,
90000525,,"Leiknisvöllur",,64.101994,-21.817495,,,0,,,,
90000526,,"Fellaskóli",,64.101775,-21.82293,,,0,,,,
90000527,,"Biskupsgata",,64.12567,-21.735857,,,0,,,,
90000529,,"Berjarimi",,64.140749,-21.793928,,,0,,,,
90000530,,"Flétturimi",,64.142384,-21.792345,,,0,,,,
90000531,,"Miðgarður",,64.144566,-21.791284,,,0,,,,
90000532,,"Mosarimi",,64.146055,-21.787453,,,0,,,,
90000534,,"Keldnaholt",,64.139227,-21.772367,,,0,,,,
90000537,,"Þverás",,64.1035037890937,-21.7832391624273,,,0,,,,
90000541,,"Vínlandsleið",,64.130433,-21.763806,,,0,,,,
90000542,,"Þúsöld",,64.129225,-21.765284,,,0,,,,
90000546,,"Þórðarsveigur",,64.126337,-21.744283,,,0,,,,
90000547,,"Geislabaugur",,64.126919,-21.752396,,,0,,,,
90000548,,"Ingunnarskóli",,64.126812,-21.757564,,,0,,,,
90000549,,"Sæmundarskóli",,64.125966,-21.740398,,,0,,,,
90000550,,"Maríubaugur",,64.127102,-21.767292,,,0,,,,
90000551,,"Biskupsgata",,64.125667,-21.735566,,,0,,,,
90000556,,"Skálagerði",,64.126062,-21.878182,,,0,,,,
90000557,,"Skálagerði",,64.1265509276963,-21.8774411223735,,,0,,,,
90000600,,"Hálsar",,64.124237,-21.793601,,,0,,,,
90000609,,"Öskjuhlíð",,64.130283,-21.930057,,,0,,,,
90000627,,"Dalbraut",,64.150638,-21.874601,,,0,,,,
90000628,,"Laugarás",,64.148988,-21.867222,,,0,,,,
90000629,,"Hjallavegur",,64.145761,-21.858683,,,0,,,,
90000630,,"Kirkjusandur",,64.149555,-21.888833,,,0,,,,
90000631,,"Kirkjusandur",,64.149596,-21.889515,,,0,,,,
90000632,,"Borgarholtsskóli",,64.150363,-21.784939,,,0,,,,
90000633,,"Borgarholtsskóli",,64.150337,-21.784784,,,0,,,,
90000634,,"Selvað",,64.100353,-21.778268,,,0,,,,
90000645,,"Hálsar",,64.124467,-21.798732,,,0,,,,
90000650,,"Fellsvegur",,64.12986,-21.727788,,,0,,,,
90000651,,"Úlfarsbraut",,64.13279,-21.736783,,,0,,,,
90000652,,"Lambhagavegur",,64.13123,-21.751643,,,0,,,,
90000653,,"Skyggnisbraut",,64.13606,-21.735226,,,0,,,,
90000654,,"Skyggnistorg",,64.13642,-21.740884,,,0,,,,
90000655,,"Lambhagavegur",,64.13119,-21.751475,,,0,,,,
90000656,,"Úlfarsbraut",,64.13277,-21.736831,,,0,,,,
90000657,,"Fellsvegur",,64.12942,-21.728207,,,0,,,,
90000661,,"Gullengi",,64.145752,-21.783106,,,0,,,,
90000702,,"Esjurætur",,64.208419,-21.712028,,,0,,,,
90000703,,"Klébergsskóli",,64.237889,-21.824185,,,0,,,,
90000704,,"Vallargrund / Esjugrund",,64.240824,-21.828048,,,0,,,,
90000705,,"Vallargrund",,64.241862,-21.829999,,,0,,,,
90000707,,"Vallargrund / Esjugrund",,64.240629,-21.827924,,,0,,,,
90000708,,"Klébergsskóli",,64.237805,-21.824264,,,0,,,,
90000711,,"Vallargrund",,64.241735,-21.82977,,,0,,,,
90000712,,"Harpa",,64.14943,-21.930277,,,0,,,,
90000713,,"Harpa",,64.149398,-21.932189,,,0,,,,
90000717,,"Depluhólar",,64.110748,-21.819954,,,0,,,,
90000718,,"Fýlshólar",,64.11162,-21.817805,,,0,,,,
90000719,,"Hrafnhólar",,64.110622,-21.815554,,,0,,,,
90000720,,"Smyrilshólar",,64.11019,-21.809423,,,0,,,,
90000721,,"Stelkshólar",,64.10909,-21.804492,,,0,,,,
90000722,,"Þrastarhólar",,64.107807,-21.808807,,,0,,,,
90000723,,"Hólagarður",,64.107845,-21.81604,,,0,,,,
90000724,,"Seljaskógar",,64.103092,-21.835326,,,0,,,,
90000725,,"Engjasel",,64.101909,-21.833665,,,0,,,,
90000726,,"Seljabraut",,64.099638,-21.830507,,,0,,,,
90000727,,"Flúðasel",,64.098228,-21.828427,,,0,,,,
90000729,,"Brautarás",,64.114922,-21.787623,,,0,,,,
90000731,,"Hálsabraut",,64.119654,-21.797871,,,0,,,,
90000732,,"Bæjarbraut",,64.117652,-21.799352,,,0,,,,
90000733,,"Bæjarbraut",,64.117725,-21.799091,,,0,,,,
90000734,,"Hálsabraut",,64.119641,-21.797586,,,0,,,,
90000736,,"Bláhamrar",,64.136947,-21.810359,,,0,,,,
90000737,,"Víkurvegur",,64.144201,-21.774926,,,0,,,,
90000740,,"Völundarhús",,64.138161,-21.773972,,,0,,,,
90000741,,"Völundarhús",,64.138281,-21.77421,,,0,,,,
90000744,,"Nethylur",,64.122195,-21.815114,,,0,,,,
90000747,,"Esjumelar",,64.194126,-21.697398,,,0,,,,
90000748,,"Esjumelar",,64.194212,-21.697271,,,0,,,,
90000749,,"Helluvað",,64.102703,-21.766723,,,0,,,,
90000750,,"Ferjuvað",,64.103901,-21.771639,,,0,,,,
90000751,,"Bjallavað",,64.102903,-21.776744,,,0,,,,
90000752,,"Árvað",,64.101478,-21.778261,,,0,,,,
90000753,,"Gefjunarbrunnur",,64.134738,-21.745795,,,0,,,,
90000754,,"Gullengi",,64.146047,-21.783243,,,0,,,,
90000755,,"Bitruháls",,64.121937,-21.80651,,,0,,,,
90000756,,"Grjótháls",,64.123575,-21.803081,,,0,,,,
90000757,,"Hestháls",,64.123163,-21.797097,,,0,,,,
90000758,,"Hestháls",,64.123374,-21.796756,,,0,,,,
90000759,,"Grjótháls",,64.123692,-21.803101,,,0,,,,
90000760,,"Bitruháls",,64.12195,-21.806758,,,0,,,,
90000763,,"Mímisbrunnur",,64.134029,-21.750167,,,0,,,,
90000764,,"Reynisvatn",,64.126632,-21.731949,,,0,,,,
90000767,,"Reynisvatn",,64.126568,-21.732504,,,0,,,,
90000768,,"Gufunesbær",,64.1432103435359,-21.8075270833849,,,0,,,,
90000769,,"Egilshöll C",,64.1464702667525,-21.7713740060721,,,0,,,,
90000770,,"Rimaflöt",,64.144722,-21.805754,,,0,,,,
90000771,,"Úlfarsá",,64.1358527085922,-21.7601463181546,,,0,,,,
90000772,,"Úlfarsá",,64.135916,-21.760679,,,0,,,,
90000774,,"Barðastaðir",,64.155669,-21.751715,,,0,,,,
90000775,,"Sólfarið",,64.147036,-21.921625,,,0,,,,
90000776,,"Sólfarið",,64.146499939059,-21.9209138374482,,,0,,,,
90000777,,"Skyggnistorg",,64.136328,-21.740712,,,0,,,,
90000778,,"Skyggnisbraut",,64.1359144921465,-21.7353817590145,,,0,,,,
90000779,,"Gefjunarbrunnur",,64.1348595193503,-21.7459323444902,,,0,,,,
90000780,,"Borgartún",,64.1457430268965,-21.9018100702188,,,0,,,,
90000781,,"Borgartún",,64.1458538511298,-21.902033705472,,,0,,,,
90000784,,"Flyðrugrandi",,64.1464975865129,-21.9649264770744,,,0,,,,
90000797,,"Norðurás",,64.113354,-21.784981,,,0,,,,
90000821,,"Bíó Paradís",,64.1456391584898,-21.9248541506857,,,0,,,,
90000822,,"Bíó Paradís",,64.1457374271584,-21.9258222252765,,,0,,,,
90000823,,"Barónsstígur",,64.1445306090398,-21.9197335300998,,,0,,,,
90000824,,"Mosavegur",,64.1513505277903,-21.7740144891439,,,0,,,,
90000825,,"Skólavegur",,64.1505905585822,-21.780350566037,,,0,,,,
90000827,,"Skólavegur",,64.150554875964,-21.7806198564486,,,0,,,,
90000828,,"Mosavegur",,64.1512406045878,-21.7738817056917,,,0,,,,
90000829,,"Sjúkrahótel",,64.1396529521985,-21.9283675315089,,,0,,,,
90000830,,"Heilsuverndarstöðin",,64.1409925210397,-21.9232080587545,,,0,,,,
90000831,,"Heilsuverndarstöðin",,64.1408158421469,-21.923355354822,,,0,,,,
90000832,,"Sjúkrahótel",,64.1394715302765,-21.9294740174921,,,0,,,,
90000833,,"Lækjartorg C",,64.1480436105954,-21.9346417050613,,,0,,,,
90000834,,"Gamla Hringbraut",,64.13820220612,-21.9325578575586,,,0,,,,
90000835,,"Gamla Hringbraut",,64.1383737307461,-21.9331339700046,,,0,,,,
90000839,,"Vínlandsleið",,64.1305961186251,-21.7638520718002,,,0,,,,
90000840,,"Krókháls",,64.1234543423351,-21.7794510433599,,,0,,,,
90000841,,"Stuðlaháls",,64.1216751303119,-21.791994722479,,,0,,,,
90000842,,"Krókháls",,64.1232972804537,-21.7794661350101,,,0,,,,
90000844,,"Læknagarður",,64.13597,-21.929238,,,0,,,,
90000845,,"Læknagarður",,64.135734,-21.9311,,,0,,,,
90000846,,"Hafnarhús",,64.14959,-21.93968,,,0,,,,
90000852,,"Valsheimilið",,64.1342960813657,-21.9228104042483,,,0,,,,
90000853,,"Spöngin B",,64.149884,-21.787933,,,0,,,,
90000854,,"Borgaskóli",,64.152449,-21.789088,,,0,,,,
90000855,,"Borgaskóli",,64.152178,-21.789099,,,0,,,,
90000856,,"Hofsgrund",,64.2406200739372,-21.8355671587748,,,0,,,,
90000858,,"Jöfurbás",,64.153954995581,-21.8058795077637,,,0,,,,
90000859,,"Gufunesvegur",,64.152653,-21.813195,,,0,,,,
90000860,,"Mjódd A",,64.109604,-21.842849,,,0,90000075,,,
90000861,,"Mjódd B",,64.109715,-21.842872,,,0,90000075,,,
90000862,,"Mjódd C",,64.1097,-21.841584,,,0,90000075,,,
90000863,,"Mjódd D",,64.109823,-21.84271,,,0,90000075,,,
90000864,,"Mjódd E",,64.109836,-21.841731,,,0,90000075,,,
90000869,,"Norðlingaskóli",,64.10105209481996,-21.77474833083452,,,0,,,,
90000870,,"Funahöfði",,64.12742396865232,-21.820068130109973,,,0,,,,
90000871,,"Funahöfði",,64.12731628808328,-21.81986428222484,,,0,,,,
90000872,,"Smiðshöfði",,64.12754569401054,-21.813502082441516,,,0,,,,
90000873,,"Smiðshöfði",,64.12740524162682,-21.813845405195423,,,0,,,,
90000874,,"Vegmúli",,64.1368914321837,-21.8799225047986,,,0,,,,
90000875,,"Skúlagata",,64.14820466278555,-21.92671890218582,,,0,,,,
90000876,,"Rúgbrauðsgerðin",,64.14506185504295,-21.91355187318676,,,0,,,,
90000877,,"Þjóðskjalasafnið",,64.14273746683286,-21.9059879610126,,,0,,,,
90000878,,"Rúgbrauðsgerðin",,64.14501985664296,-21.913504634452774,,,0,,,,
90000879,,"Laugavegur",,64.14279566130051,-21.91661628620636,,,0,,,,
90000880,,"Laugavegur",,64.14248540690205,-21.91741010289502,,,0,,,,
90000881,,"Sóleyjargata ",,64.14007786391466,-21.937882653006433,,,0,,,,
90000882,,"Háskóli Íslands C",,64.14169354829194,-21.946703080365495,,,0,,,,
90000883,,"Skeggjagata",,64.14004572304724,-21.919635828231357,,,0,,,,
90000884,,"Skeggjagata",,64.1401727159666,-21.919999719937923,,,0,,,,
